city,lat,lng,max temp,humidity,cloudiness,windspeed,country,date,name,max temp F
bafang,5.1563,10.1788,291.84,55.0,4.0,0.69,CM,1644356345,Bafang,65.642
prince rupert,54.3161,-130.3201,278.2,93.0,100.0,18.52,CA,1644356345,Prince Rupert,41.09000000000002
bubaque,11.2833,-15.8333,298.82,72.0,2.0,5.53,GW,1644356346,Bubaque,78.20600000000003
bluff,-46.6,168.3333,288.04,85.0,94.0,4.56,NZ,1644356346,Bluff,58.80200000000008
ketchikan,55.3422,-131.6461,279.41,87.0,100.0,6.17,US,1644356346,Ketchikan,43.268000000000086
tacna,-18.0056,-70.2483,294.26,60.0,0.0,5.14,PE,1644356347,Tacna,69.99800000000002
busselton,-33.65,115.3333,284.87,85.0,2.0,2.83,AU,1644356347,Busselton,53.096000000000046
butaritari,3.0707,172.7902,300.84,77.0,72.0,6.22,KI,1644356347,Butaritari,81.842
gat,31.61,34.7642,286.7,49.0,62.0,3.25,IL,1644356348,Kiryat Gat,56.39000000000002
smirnykh,49.75,142.8333,261.03,88.0,100.0,2.95,RU,1644356348,Smirnykh,10.18399999999999
inhambane,-23.865,35.3833,295.88,89.0,0.0,2.51,MZ,1644356348,Inhambane,72.91400000000003
aklavik,68.2191,-135.0107,236.61,67.0,20.0,1.54,CA,1644356349,Aklavik,-33.771999999999935
vila velha,-20.3297,-40.2925,300.12,84.0,20.0,7.2,BR,1644356323,Vila Velha,80.54600000000005
hualmay,-11.0964,-77.6139,296.2,72.0,28.0,3.92,PE,1644356349,Hualmay,73.49000000000002
rikitea,-23.1203,-134.9692,299.21,71.0,77.0,5.38,PF,1644356350,Rikitea,78.908
yarkovo,57.4028,67.0786,259.54,95.0,28.0,2.91,RU,1644356350,Yarkovo,7.502000000000077
melo,-32.3667,-54.1833,296.0,46.0,1.0,4.57,UY,1644356350,Melo,73.13000000000004
castro,-24.7911,-50.0119,292.44,84.0,71.0,2.35,BR,1644356351,Castro,66.72200000000004
mataura,-46.1927,168.8643,287.86,83.0,100.0,1.35,NZ,1644356351,Mataura,58.478000000000065
avarua,-21.2078,-159.775,300.18,78.0,40.0,6.17,CK,1644356073,Avarua,80.65400000000005
eureka,40.8021,-124.1637,287.55,72.0,0.0,1.34,US,1644356351,Eureka,57.92000000000006
cottage grove,44.8277,-92.9438,278.38,68.0,0.0,3.6,US,1644356352,Cottage Grove,41.41400000000003
bredasdorp,-34.5322,20.0403,291.08,82.0,36.0,2.06,ZA,1644356352,Bredasdorp,64.27400000000002
ushuaia,-54.8,-68.3,284.96,54.0,40.0,7.72,AR,1644356352,Ushuaia,53.258
nemuro,43.3236,145.575,268.52,65.0,78.0,6.82,JP,1644356353,Nemuro,23.666000000000007
coachella,33.6803,-116.1739,301.75,8.0,0.0,3.6,US,1644356295,Coachella,83.48000000000005
callaway,30.153,-85.5699,287.59,49.0,40.0,3.6,US,1644356353,Callaway,57.992
poum,-20.2333,164.0167,300.81,86.0,100.0,12.2,NC,1644356354,Poum,81.78800000000004
kaitangata,-46.2817,169.8464,287.98,85.0,100.0,4.15,NZ,1644356354,Kaitangata,58.694000000000074
dikson,73.5069,80.5464,256.15,95.0,100.0,9.68,RU,1644356355,Dikson,1.3999999999999986
handan,36.6006,114.4678,274.76,60.0,99.0,2.2,CN,1644356355,Handan,34.898000000000025
porto santo,33.072,-16.3415,293.1,77.0,20.0,4.63,PT,1644356355,Porto Santo,67.91000000000008
yellowknife,62.456,-114.3525,248.94,71.0,75.0,1.54,CA,1644356091,Yellowknife,-11.57799999999996
atuona,-9.8,-139.0333,299.05,77.0,20.0,7.14,PF,1644356356,Atuona,78.62000000000006
albany,42.6001,-73.9662,275.39,64.0,48.0,3.58,US,1644356151,Albany,36.03200000000002
salalah,17.0151,54.0924,295.2,17.0,0.0,5.66,OM,1644356356,Salalah,71.69000000000003
tasiilaq,65.6145,-37.6368,267.24,80.0,99.0,3.72,GL,1644356357,Tasiilaq,21.36200000000006
te anau,-45.4167,167.7167,290.81,70.0,91.0,0.42,NZ,1644356269,Te Anau,63.788000000000046
omaruru,-21.4333,15.9333,295.87,68.0,89.0,4.69,NA,1644356357,Omaruru,72.89600000000004
hilo,19.7297,-155.09,298.84,71.0,100.0,2.06,US,1644356344,Hilo,78.24199999999999
porosozero,62.7191,32.727,268.37,96.0,100.0,2.28,RU,1644356358,Porosozero,23.39600000000005
bambous virieux,-20.3428,57.7575,297.29,88.0,40.0,1.54,MU,1644356358,Bambous Virieux,75.45200000000008
lorengau,-2.0226,147.2712,301.41,80.0,98.0,3.93,PG,1644356272,Lorengau,82.86800000000008
tuktoyaktuk,69.4541,-133.0374,232.15,66.0,0.0,2.57,CA,1644356166,Tuktoyaktuk,-41.799999999999955
abu samrah,35.3029,37.1841,282.97,78.0,61.0,2.28,SY,1644356358,Abu Samrah,49.67600000000009
rio tercero,-32.173,-64.1141,302.29,22.0,3.0,4.68,AR,1644356359,Río Tercero,84.45200000000008
faya,18.3851,42.4509,285.21,70.0,19.0,0.71,SA,1644356359,Faya,53.708000000000006
fernie,49.5,-115.0687,278.53,88.0,100.0,2.36,CA,1644356224,Fernie,41.68399999999999
cayenne,4.9333,-52.3333,300.42,83.0,75.0,3.6,GF,1644356359,Cayenne,81.08600000000007
puerto ayora,-0.7393,-90.3518,300.13,74.0,55.0,4.38,EC,1644356360,Puerto Ayora,80.56400000000004
agadez,19.75,10.25,289.6,11.0,0.0,1.65,NE,1644356360,Agadez,61.610000000000085
carballo,43.213,-8.691,284.83,89.0,6.0,1.97,ES,1644356360,Carballo,53.024000000000015
santa isabel,-23.3156,-46.2214,295.18,95.0,100.0,2.57,BR,1644356271,Santa Isabel,71.65400000000005
cape town,-33.9258,18.4232,292.74,80.0,0.0,3.09,ZA,1644356241,Cape Town,67.26200000000006
lebu,-37.6167,-73.65,290.26,81.0,20.0,8.25,CL,1644356361,Lebu,62.79800000000002
fukue,32.6881,128.8419,282.16,60.0,38.0,7.16,JP,1644356361,Fukuechō,48.21800000000009
murray bridge,-35.1167,139.2667,292.86,71.0,7.0,3.45,AU,1644356362,Murray Bridge,67.47800000000007
omboue,-1.5746,9.2618,298.82,86.0,100.0,2.92,GA,1644356362,Omboué,78.20600000000003
punta arenas,-53.15,-70.9167,287.21,41.0,40.0,7.2,CL,1644356363,Punta Arenas,57.30800000000001
longyearbyen,78.2186,15.6401,265.06,62.0,75.0,4.12,SJ,1644356363,Longyearbyen,17.438000000000045
alofi,-19.0595,-169.9187,298.29,86.0,100.0,8.5,NU,1644356363,Alofi,77.25200000000008
saint george,37.1041,-113.5841,292.18,19.0,0.0,1.34,US,1644356174,Saint George,66.25400000000005
havre-saint-pierre,50.2334,-63.5986,269.15,86.0,100.0,10.29,CA,1644356364,Havre-St-Pierre,24.8
pistoia,43.9667,10.8333,279.31,73.0,0.0,2.24,IT,1644356364,Provincia di Pistoia,43.088000000000044
luderitz,-26.6481,15.1594,294.39,75.0,27.0,4.26,NA,1644356365,Lüderitz,70.23200000000001
vaini,-21.2,-175.2,300.24,94.0,40.0,5.66,TO,1644356365,Vaini,80.76200000000006
riyadh,24.6877,46.7219,285.23,33.0,0.0,1.64,SA,1644356226,Riyadh,53.74400000000007
kapaa,22.0752,-159.319,299.33,65.0,0.0,4.63,US,1644356365,Kapaa,79.12400000000001
mazurivka,49.2745,24.2123,274.59,97.0,99.0,7.79,UA,1644356366,Mazurivka,34.592
nanortalik,60.1432,-45.2371,261.48,62.0,4.0,11.84,GL,1644356366,Nanortalik,10.994000000000074
nagua,19.3832,-69.8474,301.32,74.0,40.0,2.06,DO,1644356366,Nagua,82.70600000000003
ancud,-41.8697,-73.8203,293.28,61.0,66.0,3.25,CL,1644356367,Ancud,68.234
bumba,2.1833,22.4667,296.05,38.0,79.0,1.01,CD,1644356367,Bumba,73.22000000000006
jamestown,42.097,-79.2353,270.98,56.0,100.0,6.17,US,1644356262,Jamestown,28.094000000000072
mar del plata,-38.0023,-57.5575,293.16,81.0,0.0,6.71,AR,1644356326,Mar del Plata,68.01800000000009
ribeira grande,38.5167,-28.7,288.37,77.0,75.0,3.09,PT,1644356367,Ribeira Grande,59.39600000000005
hermanus,-34.4187,19.2345,291.43,89.0,74.0,3.19,ZA,1644356368,Hermanus,64.90400000000005
vostok,46.4856,135.8833,252.19,99.0,100.0,1.67,RU,1644356368,Vostok,-5.727999999999966
wattegama,6.7989,81.4808,297.66,78.0,99.0,2.58,LK,1644356369,Wattegama,76.11800000000008
malanje,-9.5402,16.341,289.39,90.0,100.0,1.21,AO,1644356369,Malanje,61.23200000000001
carnarvon,-24.8667,113.6333,297.19,69.0,40.0,5.66,AU,1644356369,Carnarvon,75.27200000000003
limbang,4.75,115,298.32,98.0,100.0,0.94,MY,1644356370,Limbang,77.30600000000003
touros,-5.1989,-35.4608,301.65,70.0,5.0,7.34,BR,1644356370,Touros,83.3
miri,4.4148,114.0089,297.23,94.0,40.0,1.54,MY,1644356370,Marabu,75.34400000000008
keti bandar,24.1447,67.4497,293.84,65.0,0.0,4.5,PK,1644356371,Keti Bandar,69.24199999999999
hobart,-42.8794,147.3294,289.32,84.0,20.0,4.12,AU,1644355918,Hobart,61.10600000000003
coihaique,-45.5752,-72.0662,292.12,32.0,20.0,4.12,CL,1644356371,Coyhaique,66.14600000000004
la orilla,17.9833,-102.2333,300.42,61.0,3.0,3.84,MX,1644356372,La Orilla,81.08600000000007
marion,39.7684,-86.1555,281.36,58.0,20.0,5.14,US,1644356372,Marion,46.77800000000006
chicama,-7.8447,-79.1469,294.45,60.0,64.0,4.17,PE,1644356372,Chicama,70.34000000000002
elista,46.3078,44.2558,275.44,100.0,100.0,9.0,RU,1644356191,Elista,36.122000000000035
lavrentiya,65.5833,-171,242.09,94.0,51.0,5.71,RU,1644356373,Lavrentiya,-23.907999999999944
marsabit,2.3284,37.9899,294.69,32.0,74.0,3.93,KE,1644356373,Marsabit,70.77200000000003
pangnirtung,66.1451,-65.7125,250.15,77.0,100.0,2.57,CA,1644356373,Pangnirtung,-9.399999999999949
yumen,40.2833,97.2,265.02,52.0,39.0,2.79,CN,1644356374,Yumen,17.366000000000007
shache,38.4167,77.2406,271.03,50.0,100.0,2.43,CN,1644356374,Shache,28.18399999999999
kodiak,57.79,-152.4072,269.88,59.0,0.0,6.69,US,1644356374,Saint Paul Harbor,26.114000000000033
padang,-0.9492,100.3543,296.18,80.0,99.0,2.49,ID,1644356199,Padang,73.45400000000005
virginia beach,36.8529,-75.978,282.17,68.0,100.0,0.89,US,1644356251,Virginia Beach,48.23600000000007
nikolskoye,59.7035,30.7861,271.37,96.0,100.0,2.15,RU,1644356375,Nikolskoye,28.79600000000005
airai,-8.9266,125.4092,289.35,94.0,100.0,0.24,TL,1644356375,Airai,61.16000000000008
dharmabad,18.9,77.85,295.19,59.0,36.0,3.25,IN,1644356376,Dharmābād,71.67200000000004
la ciotat,43.1748,5.6045,283.96,86.0,3.0,3.87,FR,1644356376,La Ciotat,51.458000000000006
port blair,11.6667,92.75,298.66,77.0,84.0,3.32,IN,1644356376,Port Blair,77.91800000000009
ossora,59.2353,163.0719,259.14,96.0,100.0,3.46,RU,1644356349,Ossora,6.782000000000018
fortuna,40.5982,-124.1573,287.4,79.0,0.0,5.66,US,1644356377,Fortuna,57.65
port hardy,50.6996,-127.4199,281.35,87.0,100.0,6.17,CA,1644356377,Port Hardy,46.76000000000008
broken hill,-31.95,141.4333,293.99,73.0,75.0,1.54,AU,1644356377,Broken Hill,69.51200000000006
atar,20.5169,-13.0499,297.06,10.0,74.0,4.19,MR,1644356151,Atar,75.03800000000004
severo-kurilsk,50.6789,156.125,272.41,93.0,95.0,12.28,RU,1644356378,Severo-Kuril'sk,30.668000000000085
saldanha,-33.0117,17.9442,291.18,92.0,64.0,3.32,ZA,1644356378,Saldanha,64.45400000000005
san juan de los morros,9.9115,-67.3538,303.16,55.0,92.0,1.36,VE,1644356379,San Juan de los Morros,86.01800000000009
salisbury,51.0693,-1.7957,283.49,90.0,100.0,3.6,GB,1644356379,Salisbury,50.61200000000006
nuevitas,21.5453,-77.2644,298.84,70.0,14.0,4.08,CU,1644356379,Nuevitas,78.24199999999999
grand gaube,-20.0064,57.6608,297.37,79.0,62.0,1.34,MU,1644356380,Grand Gaube,75.59600000000005
kaka,37.3482,59.6143,278.87,67.0,0.0,2.58,TM,1644356380,Kaka,42.29600000000005
rorvik,64.8621,11.2373,275.21,87.0,75.0,9.26,NO,1644356380,Rørvik,35.708000000000006
geraldton,-28.7667,114.6,289.38,88.0,0.0,4.12,AU,1644356381,Geraldton,61.214000000000034
esperance,-33.8667,121.9,286.06,68.0,31.0,2.32,AU,1644356381,Esperance,55.23800000000004
zhigansk,66.7697,123.3711,232.37,100.0,97.0,1.25,RU,1644356381,Zhigansk,-41.403999999999954
lake charles,30.2131,-93.2044,291.14,29.0,0.0,3.6,US,1644356221,Lake Charles,64.38200000000002
hamilton,39.1834,-84.5333,281.8,56.0,0.0,5.66,US,1644356176,Hamilton,47.570000000000064
port alfred,-33.5906,26.891,295.34,85.0,7.0,4.44,ZA,1644356382,Port Alfred,71.942
noumea,-22.2763,166.4572,300.93,99.0,98.0,7.16,NC,1644356382,Noumea,82.00400000000005
samarai,-10.6167,150.6667,300.84,76.0,53.0,1.6,PG,1644356383,Samarai,81.842
punta cardon,11.6581,-70.215,299.87,75.0,30.0,13.45,VE,1644356383,Punta Cardon,80.09600000000005
agropoli,40.3469,14.9966,283.86,67.0,0.0,2.94,IT,1644356383,Agropoli,51.27800000000006
iqaluit,63.7506,-68.5145,255.2,77.0,100.0,3.09,CA,1644356384,Iqaluit,-0.30999999999998096
saint-philippe,-21.3585,55.7679,297.92,86.0,78.0,3.76,RE,1644356384,Saint-Philippe,76.58600000000007
bengkulu,-3.8004,102.2655,297.95,84.0,100.0,2.42,ID,1644356385,Bengkulu,76.64000000000001
east london,-33.0153,27.9116,296.64,87.0,4.0,2.36,ZA,1644356385,East London,74.28200000000001
san patricio,28.017,-97.5169,295.2,27.0,0.0,0.67,US,1644356385,San Patricio,71.69000000000003
ghosi,26.1083,83.5436,285.43,84.0,0.0,2.3,IN,1644356386,Ghosī,54.104000000000056
byron bay,-28.65,153.6167,295.4,77.0,21.0,2.54,AU,1644355593,Byron Bay,72.05
poya,-21.35,165.15,299.68,91.0,99.0,6.39,NC,1644356386,Poya,79.75400000000005
souillac,-20.5167,57.5167,297.36,88.0,40.0,1.54,MU,1644356386,Souillac,75.57800000000006
fort nelson,58.8053,-122.7002,257.92,72.0,100.0,1.54,CA,1644356387,Fort Nelson,4.58600000000007
alice springs,-23.7,133.8833,295.9,88.0,75.0,0.0,AU,1644356387,Alice Springs,72.95
reims,49.1667,4.0833,282.03,87.0,100.0,3.09,FR,1644356388,Arrondissement de Reims,47.983999999999995
sinaloa,25,-107.5,303.21,22.0,0.0,3.11,MX,1644356388,Sinaloa,86.108
beringovskiy,63.05,179.3167,244.39,90.0,5.0,5.41,RU,1644356388,Beringovskiy,-19.767999999999986
lata,40.1629,-8.3327,285.21,65.0,0.0,2.06,PT,1644356389,Lata,53.708000000000006
clyde river,70.4692,-68.5914,241.28,68.0,75.0,2.06,CA,1644356389,Clyde River,-25.365999999999964
saint anthony,45.0205,-93.218,279.33,66.0,0.0,3.6,US,1644356389,Saint Anthony,43.12400000000001
khatanga,71.9667,102.5,257.83,83.0,100.0,7.47,RU,1644356390,Khatanga,4.424000000000014
alyangula,-13.8483,136.4192,296.08,100.0,40.0,0.0,AU,1644356390,Alyangula,73.27400000000002
narasannapeta,18.4167,84.05,293.41,81.0,22.0,1.01,IN,1644356390,Narasannapeta,68.46800000000009
leshan,29.5623,103.7639,275.88,92.0,23.0,0.52,CN,1644356390,Leshan,36.91400000000003
shadegan,30.6497,48.6647,285.1,44.0,0.0,4.11,IR,1644356391,Shādegān,53.51000000000008
moose factory,51.2585,-80.6094,268.15,63.0,0.0,2.06,CA,1644356391,Moose Factory,23.0
port moresby,-9.4431,147.1797,297.83,94.0,40.0,1.54,PG,1644356391,Port Moresby,76.424
ahipara,-35.1667,173.1667,298.58,80.0,81.0,4.08,NZ,1644356392,Ahipara,77.77400000000002
thompson,55.7435,-97.8558,266.24,79.0,100.0,4.63,CA,1644356392,Thompson,19.562000000000058
barrow,71.2906,-156.7887,239.16,100.0,0.0,3.09,US,1644356392,Barrow,-29.181999999999974
saint-pierre,-21.3393,55.4781,297.97,78.0,75.0,1.54,RE,1644356393,Saint-Pierre,76.67600000000009
cabo san lucas,22.8909,-109.9124,299.6,51.0,0.0,4.63,MX,1644356140,Cabo San Lucas,79.61000000000008
mahebourg,-20.4081,57.7,297.31,88.0,40.0,1.54,MU,1644356393,Mahébourg,75.48800000000004
lantawan,10.6167,123.9833,297.98,89.0,93.0,3.31,PH,1644356394,Lantawan,76.69400000000007
fairbanks,64.8378,-147.7164,255.64,70.0,75.0,2.57,US,1644356101,Fairbanks,0.4820000000000171
khorixas,-20.3667,14.9667,294.46,70.0,89.0,4.63,NA,1644356394,Khorixas,70.358
port-gentil,-0.7193,8.7815,301.13,83.0,40.0,4.63,GA,1644356301,Port-Gentil,82.36400000000003
faanui,-16.4833,-151.75,300.79,78.0,17.0,8.82,PF,1644356395,Faanui,81.75200000000008
asosa,10.0667,34.5333,293.04,33.0,19.0,1.59,ET,1644356395,Āsosa,67.80200000000008
arraial do cabo,-22.9661,-42.0278,295.07,94.0,100.0,5.14,BR,1644356396,Arraial do Cabo,71.45600000000003
alta floresta,-9.8756,-56.0861,296.94,93.0,99.0,1.48,BR,1644356396,Alta Floresta,74.82200000000003
kununurra,-15.7667,128.7333,298.14,88.0,75.0,2.06,AU,1644356197,Kununurra,76.98200000000001
miles city,46.4083,-105.8406,284.55,36.0,0.0,11.32,US,1644356396,Miles City,52.52000000000006
genhe,50.7833,121.5167,252.24,100.0,98.0,0.8,CN,1644356397,Genhe,-5.637999999999941
ouadda,8.0777,22.4007,292.33,21.0,58.0,2.37,CF,1644356397,Ouadda,66.52400000000002
soe,-9.8607,124.284,292.55,92.0,96.0,1.22,ID,1644356397,Soe,66.92000000000006
borzya,50.3833,116.5167,249.1,100.0,80.0,0.33,RU,1644356398,Borzya,-11.28999999999997
kushima,31.4583,131.2333,281.17,80.0,100.0,3.85,JP,1644356398,Kushima,46.43600000000007
tura,25.5198,90.2201,285.03,72.0,2.0,1.5,IN,1644356399,Tura,53.38399999999999
tyler,32.3513,-95.3011,291.18,23.0,0.0,5.66,US,1644356152,Tyler,64.45400000000005
sao filipe,14.8961,-24.4956,295.66,74.0,2.0,2.36,CV,1644356399,São Filipe,72.51800000000009
katsuura,35.1333,140.3,278.25,77.0,94.0,5.49,JP,1644356399,Katsuura,41.18000000000004
kintampo,8.0563,-1.7306,302.06,22.0,58.0,0.58,GH,1644356400,Kintampo,84.03800000000004
sawakin,19.1059,37.3321,295.25,75.0,18.0,2.27,SD,1644356400,Sawākin,71.78000000000004
maceio,-9.6658,-35.7353,300.84,74.0,20.0,4.63,BR,1644356401,Maceió,81.842
yulara,-25.2406,130.9889,297.06,83.0,40.0,3.09,AU,1644356401,Yulara,75.03800000000004
colares,38.7992,-9.4469,288.03,60.0,0.0,2.24,PT,1644356402,Colares,58.78399999999999
puerto colombia,10.9878,-74.9547,302.2,81.0,9.0,8.42,CO,1644356403,Puerto Colombia,84.29000000000002
pafos,34.7667,32.4167,289.1,77.0,20.0,4.63,CY,1644356404,Paphos,60.71000000000008
santiago,-33.4569,-70.6483,306.64,28.0,0.0,9.77,CL,1644355767,Santiago,92.28200000000001
belmonte,-15.8631,-38.8828,300.43,83.0,6.0,3.73,BR,1644356405,Belmonte,81.10400000000006
kampot,10.6167,104.1833,300.18,83.0,96.0,0.94,KH,1644356405,Kampot,80.65400000000005
coahuayana,18.7333,-103.6833,304.86,48.0,0.0,3.53,MX,1644356406,Coahuayana Viejo,89.07800000000006
vangaindrano,-23.35,47.6,297.62,95.0,97.0,4.55,MG,1644356406,Vangaindrano,76.04600000000005
morant bay,17.8815,-76.4093,301.94,75.0,23.0,3.31,JM,1644356406,Morant Bay,83.82200000000003
port hedland,-20.3167,118.5667,297.18,94.0,100.0,3.09,AU,1644356407,Port Hedland,75.25400000000005
vestmannaeyjar,63.4427,-20.2734,274.89,75.0,100.0,4.99,IS,1644356407,Vestmannaeyjar,35.13200000000002
ola,59.5833,151.2833,253.72,82.0,87.0,3.94,RU,1644356407,Ola,-2.973999999999961
grindavik,63.8424,-22.4338,272.41,100.0,75.0,4.63,IS,1644356408,Grindavik,30.668000000000085
saint-joseph,-21.3667,55.6167,297.36,85.0,80.0,3.62,RE,1644356408,Saint-Joseph,75.57800000000006
anshun,26.25,105.9333,272.78,88.0,100.0,2.68,CN,1644356408,Anshun,31.333999999999993
vanimo,-2.6741,141.3028,299.05,88.0,80.0,1.43,PG,1644356409,Vanimo,78.62000000000006
leningradskiy,69.3833,178.4167,240.25,81.0,13.0,1.66,RU,1644356160,Leningradskiy,-27.219999999999956
fatehpur,25.9333,80.8,286.37,76.0,1.0,3.32,IN,1644356409,Fatehpur,55.79600000000005
alugan,12.2188,125.4808,299.61,74.0,100.0,5.99,PH,1644356410,Alugan,79.62800000000007
whitehorse,60.7161,-135.0538,274.58,78.0,75.0,9.77,CA,1644356410,Whitehorse,34.57400000000001
abreus,22.2775,-80.5675,301.7,49.0,21.0,4.66,CU,1644356410,Abreus,83.39000000000001
bon air,37.5249,-77.5578,283.9,44.0,0.0,2.57,US,1644356411,Bon Air,51.35
new norfolk,-42.7826,147.0587,289.22,72.0,58.0,1.2,AU,1644356411,New Norfolk,60.92600000000009
cherskiy,68.75,161.3,231.69,100.0,84.0,1.96,RU,1644356411,Cherskiy,-42.62799999999996
chokurdakh,70.6333,147.9167,231.01,100.0,97.0,2.54,RU,1644356412,Chokurdakh,-43.851999999999975
leesburg,39.1157,-77.5636,281.88,35.0,0.0,3.58,US,1644356381,Leesburg,47.714000000000034
asau,46.4333,26.4,272.26,89.0,16.0,3.13,RO,1644356412,Asău,30.398000000000025
berlevag,70.8578,29.0864,270.04,74.0,40.0,6.17,NO,1644356412,Berlevåg,26.40200000000008
barcelos,41.5388,-8.6151,286.95,64.0,0.0,2.0,PT,1644356413,Barcelos,56.84000000000002
oda,35.1833,132.5,273.58,84.0,100.0,3.12,JP,1644356413,Ōdachō-ōda,32.774000000000015
krasnoselkup,65.7,82.4667,248.84,91.0,100.0,4.69,RU,1644356414,Krasnosel'kup,-11.757999999999953
sinegorsk,47.1667,142.5,255.34,89.0,99.0,3.13,RU,1644356414,Sinegorsk,-0.05799999999995009
petropavlovsk-kamchatskiy,53.0452,158.6483,264.14,86.0,75.0,2.0,RU,1644356414,Petropavlovsk-Kamchatskiy,15.782000000000018
georgetown,5.4112,100.3354,299.11,92.0,20.0,1.03,MY,1644356370,George Town,78.72800000000007
guryevsk,54.2833,85.9333,246.84,100.0,96.0,1.18,RU,1644356415,Gur'yevsk,-15.357999999999954
qaanaaq,77.484,-69.3632,247.75,92.0,100.0,2.43,GL,1644356415,Qaanaaq,-13.719999999999956
hirara,24.8,125.2833,292.44,76.0,100.0,8.6,JP,1644356416,Hirara,66.72200000000004
oleksandrivka,48.9634,32.2349,272.63,78.0,99.0,4.33,UA,1644356416,Oleksandrivka,31.064000000000032
pevek,69.7008,170.3133,237.39,100.0,46.0,2.1,RU,1644356416,Pevek,-32.36799999999998
butembo,0.15,29.2833,291.89,55.0,95.0,1.25,CD,1644356417,Butembo,65.73200000000001
bathsheba,13.2167,-59.5167,299.49,65.0,75.0,7.2,BB,1644356417,Bathsheba,79.41200000000006
makakilo city,21.3469,-158.0858,299.42,57.0,20.0,5.14,US,1644356417,Makakilo City,79.28600000000007
am timan,11.0297,20.2827,296.64,15.0,4.0,3.1,TD,1644356418,Am Timan,74.28200000000001
mulege,26.8833,-111.9833,294.57,32.0,6.0,5.4,MX,1644356220,Mulegé,70.55600000000003
chara,56.9064,118.2631,250.06,97.0,100.0,0.15,RU,1644356418,Chara,-9.561999999999955
turukhansk,65.8167,87.9833,245.38,93.0,100.0,2.25,RU,1644356419,Turukhansk,-17.98599999999997
arlit,18.7369,7.3853,293.64,8.0,0.0,3.99,NE,1644356419,Arlit,68.88200000000002
brae,60.3964,-1.353,277.1,77.0,98.0,14.87,GB,1644356420,Brae,39.110000000000085
namatanai,-3.6667,152.4333,300.78,76.0,100.0,2.07,PG,1644356420,Namatanai,81.734
comodoro rivadavia,-45.8667,-67.5,294.07,19.0,0.0,7.2,AR,1644356420,Comodoro Rivadavia,69.65600000000003
katobu,-4.9408,122.5276,296.74,93.0,93.0,0.61,ID,1644356421,Katobu,74.46200000000006
port elizabeth,-33.918,25.5701,291.31,94.0,40.0,3.6,ZA,1644356421,Port Elizabeth,64.68800000000005
walvis bay,-22.9575,14.5053,294.87,83.0,44.0,1.54,NA,1644356421,Walvis Bay,71.09600000000005
narsaq,60.9167,-46.05,256.27,74.0,15.0,2.41,GL,1644356422,Narsaq,1.6160000000000068
sao jose da coroa grande,-8.8978,-35.1478,299.88,75.0,1.0,4.89,BR,1644356422,São José da Coroa Grande,80.11400000000003
kudahuvadhoo,2.6708,72.8944,301.32,64.0,100.0,5.41,MV,1644356422,Kudahuvadhoo,82.70600000000003
ankang,32.68,109.0172,274.09,77.0,93.0,0.5,CN,1644356423,Ankang,33.69199999999999
hrubieszow,50.805,23.8925,275.43,97.0,100.0,7.88,PL,1644356423,Hrubieszów,36.104000000000056
codrington,-38.2667,141.9667,292.82,72.0,99.0,3.03,AU,1644356423,Codrington,67.40600000000003
dzheyrakh,42.8228,44.6756,266.81,79.0,100.0,5.43,RU,1644356424,Dzheyrakh,20.588000000000044
namibe,-15.1961,12.1522,296.36,78.0,100.0,5.1,AO,1644356424,Mossamedes,73.77800000000006
vysokogornyy,50.1167,139.15,249.41,100.0,100.0,1.72,RU,1644356424,Vysokogornyy,-10.731999999999964
narkanda,31.2548,77.4613,270.77,80.0,100.0,1.76,IN,1644356425,Narkanda,27.716000000000008
maragogi,-9.0122,-35.2225,299.85,75.0,2.0,4.88,BR,1644356425,Maragogi,80.06000000000009
sistranda,63.7256,8.834,275.87,76.0,100.0,16.46,NO,1644356425,Sistranda,36.89600000000005
vaitape,-16.5167,-151.75,300.79,77.0,18.0,8.81,PF,1644356426,Vaitape,81.75200000000008
muli,2.9167,73.5667,301.34,71.0,100.0,5.27,MV,1644356426,Muli,82.74199999999999
bonavista,48.6499,-53.1147,272.1,80.0,100.0,8.03,CA,1644356426,Bonavista,30.11000000000008
payo,-3.7508,103.6372,295.21,98.0,99.0,0.7,ID,1644356427,Payo,71.708
boa vista,2.8197,-60.6733,308.14,34.0,40.0,5.14,BR,1644356415,Boa Vista,94.98200000000001
thurso,58.5927,-3.5259,278.12,88.0,91.0,11.89,GB,1644356427,Thurso,40.94600000000005
indian head,38.6001,-77.1622,284.24,23.0,0.0,4.63,US,1644356427,Indian Head,51.96200000000006
agua verde,22.9,-106.05,301.2,37.0,0.0,4.95,MX,1644356428,Agua Verde,82.49000000000002
constitucion,-35.3333,-72.4167,293.99,67.0,24.0,8.73,CL,1644356428,Constitución,69.51200000000006
cabedelo,-6.9811,-34.8339,301.52,74.0,1.0,6.19,BR,1644356428,Cabedelo,83.066
laguna,38.421,-121.4238,297.96,48.0,0.0,2.06,US,1644356429,Laguna,76.658
tortosa,40.8125,0.5216,284.76,89.0,2.0,1.14,ES,1644356429,Tortosa,52.898000000000025
santa cruz,-17.8,-63.1667,304.85,42.0,40.0,5.66,BO,1644356365,Santa Cruz de la Sierra,89.06000000000009
ponta delgada,37.7333,-25.6667,287.55,72.0,20.0,3.6,PT,1644356429,Ponta Delgada,57.92000000000006
lebanon,36.2081,-86.2911,287.18,36.0,0.0,4.63,US,1644356294,Lebanon,57.254000000000055
oka,45.4649,-74.0889,272.92,73.0,100.0,4.12,CA,1644356430,Oka,31.58600000000007
jibuti,11.5,42.5,295.83,75.0,21.0,7.44,DJ,1644356430,Djibouti,72.82400000000001
cidreira,-30.1811,-50.2056,295.75,69.0,46.0,5.78,BR,1644356430,Cidreira,72.68000000000004
guaraniacu,-25.1008,-52.8781,293.34,58.0,1.0,0.77,BR,1644356431,Guaraniaçu,68.342
bijie,27.3125,105.2942,271.76,92.0,100.0,1.86,CN,1644356431,Bijie,29.498000000000026
bethel,41.3712,-73.414,276.38,73.0,100.0,3.6,US,1644356431,Bethel,37.814000000000036
troyes,48.3333,4.0833,280.42,100.0,46.0,1.54,FR,1644356432,Arrondissement de Troyes,45.08600000000007
praia da vitoria,38.7333,-27.0667,288.29,88.0,40.0,5.07,PT,1644356432,Praia da Vitória,59.25200000000008
tual,-5.6667,132.75,301.49,77.0,100.0,4.99,ID,1644356432,Tual,83.01200000000006
isangel,-19.55,169.2667,301.21,83.0,100.0,2.06,VU,1644356433,Isangel,82.50800000000001
yerofey pavlovich,53.9667,121.9667,258.02,91.0,100.0,3.63,RU,1644356433,Yerofey Pavlovich,4.766000000000009
saskylakh,71.9167,114.0833,256.82,84.0,100.0,6.63,RU,1644356433,Saskylakh,2.60600000000003
taoudenni,22.6783,-3.9836,294.54,11.0,0.0,5.1,ML,1644356434,Taoudenni,70.50200000000008
baruun-urt,46.6806,113.2792,254.28,95.0,17.0,0.28,MN,1644356434,Baruun-Urt,-1.9659999999999584
casper,42.8666,-106.3131,281.93,23.0,0.0,7.72,US,1644356332,Casper,47.80400000000005
ishigaki,24.3448,124.1572,290.22,100.0,75.0,4.12,JP,1644356434,Ishigaki,62.72600000000009
manzhouli,49.6,117.4333,255.19,97.0,68.0,3.44,CN,1644356435,Manzhouli,-0.3279999999999603
ponta do sol,32.6667,-17.1,293.5,51.0,32.0,4.27,PT,1644356435,Ponta do Sol,68.63000000000004
batemans bay,-35.7167,150.1833,293.66,57.0,2.0,0.99,AU,1644356435,Batemans Bay,68.91800000000009
pangkalanbuun,-2.6833,111.6167,296.7,96.0,99.0,0.42,ID,1644356436,Pangkalanbuun,74.39000000000001
victoria,22.2855,114.1577,289.44,82.0,100.0,3.58,HK,1644356304,Hong Kong,61.32200000000004
naze,28.3667,129.4833,286.78,76.0,91.0,5.62,JP,1644356436,Naze,56.53399999999999
banjarmasin,-3.3244,114.591,296.23,92.0,100.0,1.38,ID,1644356213,Banjarmasin,73.54400000000007
ihtiman,42.4333,23.8167,272.49,85.0,69.0,2.58,BG,1644356437,Ihtiman,30.812000000000058
batagay-alyta,67.8006,130.4114,237.26,96.0,61.0,1.71,RU,1644356437,Batagay-Alyta,-32.601999999999975
tazovskiy,67.4667,78.7,253.82,82.0,100.0,7.23,RU,1644356437,Tazovsky,-2.7939999999999685
osa,57.2829,55.4567,257.75,98.0,93.0,1.73,RU,1644356438,Osa,4.28000000000004
pechenga,69.5259,31.1703,268.63,95.0,96.0,4.05,RU,1644356438,Pechenga,23.864000000000033
chuy,-33.6971,-53.4616,293.35,64.0,11.0,3.5,UY,1644356438,Chui,68.36000000000008
tautira,-17.7333,-149.15,303.16,79.0,67.0,8.24,PF,1644356439,Tautira,86.01800000000009
karema,-6.8205,30.4389,294.8,85.0,100.0,1.74,TZ,1644356439,Karema,70.97000000000006
husavik,66.0449,-17.3389,271.1,94.0,100.0,11.13,IS,1644356439,Husavik,28.31000000000008
mayo,38.8876,-76.5119,282.21,36.0,0.0,4.63,US,1644356423,Mayo,48.30800000000001
dalbandin,28.8947,64.4101,284.17,31.0,0.0,2.09,PK,1644356440,Dalbandin,51.83600000000007
marsa matruh,31.3525,27.2453,287.26,62.0,40.0,7.2,EG,1644356440,Marsá Maţrūḩ,57.398000000000025
myitkyina,25.3833,97.4,283.84,81.0,3.0,1.62,MM,1644356440,Myitkyina,51.242
magadan,59.5667,150.8,255.85,70.0,78.0,3.56,RU,1644356441,Magadan,0.8600000000000314
mama,58.3106,112.8986,250.76,99.0,100.0,1.6,RU,1644356441,Mama,-8.301999999999978
caucaia,-3.7361,-38.6531,301.12,74.0,0.0,3.6,BR,1644356441,Caucaia,82.34600000000005
yar-sale,66.8333,70.8333,255.42,90.0,100.0,7.11,RU,1644356442,Yar-Sale,0.08600000000001984
villazon,-22.0866,-65.5942,282.07,83.0,99.0,5.3,BO,1644356442,Villazón,48.056000000000026
zhangjiakou,40.81,114.8794,266.53,35.0,81.0,0.73,CN,1644356442,Zhangjiakou,20.083999999999993
moroto,2.5345,34.6666,295.17,42.0,27.0,2.31,UG,1644356443,Moroto,71.63600000000007
ron,15.6667,75.7333,294.37,65.0,98.0,1.7,IN,1644356443,Ron,70.19600000000005
kutum,14.2,24.6667,287.45,16.0,1.0,3.2,SD,1644356443,Kutum,57.74000000000002
olavarria,-36.8927,-60.3225,297.6,52.0,55.0,2.57,AR,1644356444,Olavarría,76.01000000000008
boyolangu,-8.1181,111.8935,296.58,94.0,100.0,2.94,ID,1644356444,Boyolangu,74.174
hasaki,35.7333,140.8333,272.37,64.0,96.0,6.73,JP,1644356350,Hasaki,30.59600000000005
dunedin,-45.8742,170.5036,288.04,84.0,100.0,1.79,NZ,1644356445,Dunedin,58.80200000000008
eyl,7.9803,49.8164,296.32,71.0,67.0,7.45,SO,1644356445,Eyl,73.70600000000003
labuhan,-6.8844,112.2051,298.17,88.0,100.0,2.93,ID,1644356446,Labuhan,77.03600000000007
mount isa,-20.7333,139.5,296.02,94.0,3.0,0.0,AU,1644356446,Mount Isa,73.16600000000001
kiama,-34.6833,150.8667,295.69,77.0,1.0,1.44,AU,1644356446,Kiama,72.57200000000003
guerrero negro,27.9769,-114.0611,296.42,23.0,31.0,3.87,MX,1644356447,Guerrero Negro,73.88600000000007
yatou,37.15,122.3833,273.23,60.0,100.0,1.85,CN,1644356447,Yatou,32.14400000000008
norman wells,65.282,-126.8329,241.17,56.0,75.0,1.54,CA,1644356447,Norman Wells,-25.563999999999986
provideniya,64.3833,-173.3,253.21,65.0,0.0,6.0,RU,1644356448,Provideniya,-3.891999999999946
talnakh,69.4865,88.3972,254.93,96.0,100.0,5.18,RU,1644356448,Talnakh,-0.7959999999999496
lunavada,23.1333,73.6167,290.85,60.0,1.0,1.28,IN,1644356448,Lūnāvāda,63.860000000000085
torbay,47.6666,-52.7314,271.8,80.0,100.0,7.72,CA,1644356449,Torbay,29.57000000000006
natal,-5.795,-35.2094,301.51,74.0,20.0,6.69,BR,1644356270,Natal,83.04800000000003
vung tau,10.346,107.0843,299.09,80.0,100.0,9.08,VN,1644356449,Vung Tau,78.692
doos,10.4653,124.7294,298.21,83.0,79.0,3.21,PH,1644356449,Doos,77.108
belaya gora,68.5333,146.4167,227.6,100.0,86.0,1.79,RU,1644356450,Belaya Gora,-49.98999999999997
lima,-12.0432,-77.0282,295.45,73.0,0.0,4.12,PE,1644356367,Lima,72.14000000000001
manzil salim,35.8567,8.4765,279.15,70.0,5.0,1.69,TN,1644356450,Menzel Salem,42.8
praia,14.9215,-23.5087,294.45,78.0,0.0,6.17,CV,1644356450,Praia,70.34000000000002
vardo,70.3705,31.1107,271.14,80.0,75.0,10.29,NO,1644356451,Vardø,28.382000000000016
taltal,-25.4,-70.4833,293.29,73.0,24.0,2.15,CL,1644356451,Taltal,68.25200000000008
ukiah,39.1502,-123.2078,300.58,32.0,0.0,0.45,US,1644356452,Ukiah,81.37400000000001
chernyshevskiy,63.0128,112.4714,239.88,100.0,93.0,1.41,RU,1644356452,Chernyshevskiy,-27.885999999999967
liverpool,53.4106,-2.9779,284.98,86.0,100.0,4.92,GB,1644356452,Liverpool,53.294000000000075
tabou,4.423,-7.3528,299.35,86.0,4.0,3.94,CI,1644356453,Tabou,79.16000000000008
maun,-19.9833,23.4167,294.59,42.0,5.0,2.27,BW,1644356453,Maun,70.592
mackay,-21.15,149.2,298.53,94.0,2.0,2.57,AU,1644356453,Mackay,77.684
mentougou,39.9392,116.0917,263.67,28.0,80.0,0.83,CN,1644356454,Mentougou,14.936000000000071
rio gallegos,-51.6226,-69.2181,292.18,22.0,20.0,8.23,AR,1644356454,Río Gallegos,66.25400000000005
kuopio,62.8924,27.677,270.12,93.0,100.0,5.14,FI,1644356454,Kuopio,26.54600000000005
kuna,43.4918,-116.4201,278.75,63.0,0.0,2.06,US,1644356455,Kuna,42.08000000000004
barra do garcas,-15.89,-52.2567,297.64,90.0,91.0,1.97,BR,1644356188,Barra do Garças,76.08200000000002
doha,25.2867,51.5333,289.14,69.0,0.0,4.12,QA,1644356456,Doha,60.78200000000002
bulgan,48.8125,103.5347,255.13,87.0,100.0,1.34,MN,1644356457,Bulgan,-0.4359999999999644
nelson bay,-32.7167,152.15,293.71,88.0,7.0,0.89,AU,1644356457,Nelson Bay,69.00800000000001
upernavik,72.7868,-56.1549,245.96,93.0,100.0,2.67,GL,1644356458,Upernavik,-16.941999999999943
lompoc,34.6391,-120.4579,299.7,38.0,0.0,3.6,US,1644356458,Lompoc,79.79000000000002
svetlyy,54.675,20.1347,278.18,86.0,6.0,9.38,RU,1644356459,Tsimmerbude,41.05400000000005
sorland,67.667,12.6934,275.19,61.0,100.0,14.24,NO,1644356459,Sørland,35.67200000000004
bonaventure,48.0457,-65.4926,272.45,93.0,100.0,5.14,CA,1644356459,Bonaventure,30.74000000000002
tiksi,71.6872,128.8694,244.48,99.0,74.0,4.02,RU,1644356460,Tiksi,-19.605999999999973
pochutla,15.7432,-96.4661,301.62,57.0,48.0,2.67,MX,1644356460,Pochutla,83.24600000000005
kavieng,-2.5744,150.7967,301.11,78.0,100.0,3.84,PG,1644356460,Kavieng,82.32800000000006
roald,62.5833,6.1333,278.33,70.0,75.0,12.86,NO,1644356460,Roald,41.32400000000001
iringa,-7.7667,35.7,290.77,88.0,20.0,0.0,TZ,1644356461,Iringa,63.71600000000001
funtua,11.5233,7.3081,293.08,16.0,89.0,4.54,NG,1644356461,Funtua,67.87400000000001
camabatela,-8.1881,15.375,289.6,86.0,97.0,1.34,AO,1644356462,Camabatela,61.610000000000085
melnikovo,56.5558,84.085,252.68,100.0,53.0,2.28,RU,1644356462,Mel'nikovo,-4.845999999999947
wanning,18.8003,110.3967,294.88,92.0,82.0,3.04,CN,1644356462,Wanning,71.11400000000003
dingle,10.9995,122.6711,296.4,89.0,91.0,4.61,PH,1644356463,Dingle,73.85
freistadt,48.511,14.5045,279.34,91.0,93.0,4.21,AT,1644356463,Freistadt,43.141999999999996
sao mateus,-18.7161,-39.8589,298.58,84.0,99.0,3.64,BR,1644356464,São Mateus,77.77400000000002
jablah,35.3614,35.9256,286.31,58.0,75.0,3.6,SY,1644356464,Jablah,55.688000000000045
qingdao,36.0986,120.3719,268.93,93.0,100.0,1.0,CN,1644356366,Qingdao,24.404000000000053
san quintin,30.4833,-115.95,293.63,25.0,4.0,4.15,MX,1644356464,San Quintín,68.86400000000003
ilulissat,69.2167,-51.1,252.16,59.0,38.0,10.29,GL,1644356465,Ilulissat,-5.781999999999968
staryy krym,45.0333,35.1,275.54,96.0,100.0,4.36,UA,1644356465,Stary Krym,36.30200000000008
slavutych,51.5196,30.7343,270.12,95.0,83.0,2.68,UA,1644356466,Slavutych,26.54600000000005
tingi,-11.3,35.0333,291.06,91.0,95.0,0.61,TZ,1644356466,Tingi,64.23800000000004
yashkul,46.1711,45.3435,275.82,83.0,100.0,5.79,RU,1644356466,Yashkul',36.806000000000026
ostrovnoy,68.0531,39.5131,262.97,89.0,49.0,7.95,RU,1644356467,Ostrovnoy,13.67600000000009
meulaboh,4.1363,96.1285,297.28,88.0,87.0,2.0,ID,1644356467,Meulaboh,75.434
sao miguel do araguaia,-13.275,-50.1628,297.2,89.0,100.0,0.4,BR,1644356467,São Miguel do Araguaia,75.29000000000002
hithadhoo,-0.6,73.0833,301.18,69.0,100.0,6.19,MV,1644356468,Hithadhoo,82.45400000000005
cairns,-16.9167,145.7667,298.19,90.0,38.0,4.12,AU,1644356312,Cairns,77.07200000000003
santo augusto,-27.8508,-53.7772,300.85,35.0,0.0,2.22,BR,1644356468,Santo Augusto,81.86000000000008
songkhla,6.8333,100.6667,298.18,93.0,87.0,1.47,TH,1644356468,Songkhla,77.05400000000006
yazd,31.8972,54.3675,280.21,26.0,0.0,2.06,IR,1644356469,Yazd,44.708000000000006
henties bay,-22.116,14.2845,294.74,83.0,19.0,0.96,NA,1644356469,Henties Bay,70.86200000000005
uryupinsk,50.8047,42.0138,274.05,98.0,100.0,5.07,RU,1644356470,Uryupinsk,33.62000000000006
muros,42.7762,-9.0603,286.95,84.0,4.0,2.69,ES,1644356470,Muros,56.84000000000002
banepa,27.6298,85.5214,279.33,93.0,75.0,1.54,NP,1644356470,Banepā,43.12400000000001
srostki,52.4189,85.7022,261.01,97.0,100.0,1.61,RU,1644356471,Srostki,10.148000000000025
cotacachi,0.3,-78.2667,288.9,82.0,97.0,1.04,EC,1644356471,Cotacachi,60.35
adrar,20.5022,-10.0711,293.26,11.0,78.0,4.9,MR,1644356471,Adrar,68.19800000000002
porec,45.2258,13.5939,276.68,55.0,1.0,1.87,HR,1644356356,Poreč,38.354000000000056
zyryanka,65.75,150.85,229.95,100.0,70.0,2.29,RU,1644356472,Zyryanka,-45.75999999999998
nargana,9.4428,-78.5906,300.25,76.0,70.0,5.67,PA,1644356472,Narganá,80.78000000000004
yarada,17.65,83.2667,293.33,100.0,20.0,1.03,IN,1644356472,Yārāda,68.32400000000001
tilichiki,60.4667,166.1,245.29,89.0,12.0,3.96,RU,1644356473,Tilichiki,-18.147999999999975
moses lake,47.1301,-119.2781,282.94,81.0,0.0,1.54,US,1644356473,Moses Lake,49.622000000000035
avera,33.194,-82.5271,285.62,47.0,95.0,1.5,US,1644356343,Avera,54.44600000000005
mayya,61.7333,130.2811,236.1,100.0,100.0,0.32,RU,1644356473,Mayya,-34.68999999999997
naryshkino,52.9678,35.7268,269.69,95.0,100.0,2.62,RU,1644356474,Naryshkino,25.772000000000038
harper,4.375,-7.7169,299.26,85.0,3.0,3.71,LR,1644356474,Harper,78.99800000000002
buchanan,5.8808,-10.0467,299.13,82.0,65.0,2.78,LR,1644356475,Buchanan,78.76400000000004
oksfjord,70.2396,22.3479,270.66,87.0,100.0,4.76,NO,1644356475,Øksfjord,27.518000000000086
cootamundra,-34.65,148.0333,294.23,37.0,27.0,1.51,AU,1644356475,Cootamundra,69.94400000000007
ulladulla,-35.35,150.4667,294.64,58.0,0.0,1.09,AU,1644356476,Ulladulla,70.68200000000002
plettenberg bay,-34.0527,23.3716,292.71,68.0,46.0,2.62,ZA,1644356476,Plettenberg Bay,67.208
uruzgan,32.8333,66,274.01,55.0,10.0,3.57,AF,1644356476,Oruzgan,33.54800000000002
jesup,31.6074,-81.8854,287.41,50.0,0.0,0.0,US,1644356477,Jesup,57.668000000000085
marzuq,14.4,46.4667,288.6,31.0,20.0,1.46,YE,1644356477,Marzuq,59.81000000000008
orhei,47.3831,28.8231,275.26,84.0,76.0,3.84,MD,1644356477,Orhei,35.79800000000002
akyab,20.15,92.9,289.14,49.0,98.0,3.57,MM,1644356478,Sittwe,60.78200000000002
seabra,-12.4186,-41.7703,296.56,66.0,100.0,2.14,BR,1644356478,Seabra,74.13800000000005
egvekinot,66.3167,-179.1667,247.09,72.0,0.0,7.03,RU,1644356478,Egvekinot,-14.907999999999952
iralaya,15,-83.2333,299.52,67.0,13.0,5.45,HN,1644356479,Iralaya,79.46600000000001
ocumare del tuy,10.1165,-66.7761,301.13,62.0,49.0,2.53,VE,1644356479,Ocumare del Tuy,82.36400000000003
damara,4.9608,18.7035,298.83,21.0,18.0,1.47,CF,1644356480,Damara,78.22400000000002
mbini,1.574,9.6134,302.06,83.0,73.0,2.55,GQ,1644356480,Mbini,84.03800000000004
liuzhou,24.3126,109.3892,278.53,83.0,100.0,3.33,CN,1644356480,Liuzhou,41.68399999999999
datong,40.0936,113.2914,267.71,44.0,100.0,1.7,CN,1644356481,Datong,22.208000000000006
bosaso,11.2842,49.1816,295.95,73.0,23.0,1.99,SO,1644356481,Bosaso,73.04000000000002
tsurugashima,35.9397,139.3907,278.48,55.0,64.0,2.92,JP,1644356481,Tsurugashima,41.59400000000007
palmas,-10.2128,-48.3603,303.08,66.0,40.0,2.57,BR,1644356482,Palmas,85.87400000000001
khed,17.7167,73.3833,289.67,94.0,7.0,1.38,IN,1644356482,Khed,61.73600000000007
bontang,0.1333,117.5,297.36,91.0,100.0,2.94,ID,1644356483,Bontang,75.57800000000006
yuanping,38.7153,112.7575,270.12,42.0,0.0,0.77,CN,1644356483,Yuanping,26.54600000000005
micheweni,-4.9667,39.8333,300.25,75.0,71.0,5.69,TZ,1644356483,Micheweni,80.78000000000004
pasighat,28.0667,95.3333,286.1,69.0,93.0,1.13,IN,1644356484,Pāsighāt,55.31000000000008
halifax,44.6453,-63.5724,279.15,97.0,100.0,10.8,CA,1644356236,Halifax,42.8
oyama,36.3,139.8,278.48,54.0,10.0,1.86,JP,1644356484,Oyama,41.59400000000007
roma,43.2128,-75.4557,273.39,87.0,100.0,6.17,US,1644356484,Rome,32.432000000000016
tuatapere,-46.1333,167.6833,288.61,77.0,94.0,1.71,NZ,1644356485,Tuatapere,59.82800000000007
jarabacoa,19.1218,-70.6422,298.75,92.0,51.0,1.84,DO,1644356485,Jarabacoa,78.08000000000004
kyzyl-suu,42.3414,78.0056,267.56,66.0,100.0,3.45,KG,1644356485,Kyzyl-Suu,21.938000000000045
kangalassy,62.3464,129.9628,236.44,100.0,100.0,0.75,RU,1644356486,Kangalassy,-34.07799999999996
hobyo,5.3505,48.5268,297.66,72.0,24.0,9.18,SO,1644356486,Hobyo,76.11800000000008
nchelenge,-9.3451,28.734,294.81,82.0,91.0,1.56,ZM,1644356487,Nchelenge,70.98800000000004
mariana,-20.3778,-43.4161,293.49,99.0,100.0,1.17,BR,1644356487,Mariana,68.61200000000005
nola,40.922,14.5329,285.68,58.0,0.0,1.7,IT,1644356487,Nola,54.55400000000005
kulhudhuffushi,6.6221,73.07,300.14,67.0,72.0,4.77,MV,1644356488,Kulhudhuffushi,80.58200000000002
los llanos de aridane,28.6585,-17.9182,292.11,47.0,0.0,4.02,ES,1644356488,Los Llanos de Aridane,66.12800000000007
lamesa,32.7376,-101.951,292.33,14.0,6.0,7.22,US,1644356375,Lamesa,66.52400000000002
sioux lookout,50.1001,-91.917,269.36,86.0,100.0,3.09,CA,1644356488,Sioux Lookout,25.178000000000065
jatara,25.0167,79.05,288.09,45.0,2.0,1.95,IN,1644356489,Jatāra,58.891999999999996
lensk,60.7253,114.9278,248.63,100.0,100.0,0.88,RU,1644356489,Lensk,-12.135999999999967
medvezhyegorsk,62.9167,34.4667,262.84,99.0,100.0,1.08,RU,1644356489,Medvezh'yegorsk,13.441999999999997
kyra,49.5776,111.9753,257.78,93.0,100.0,1.6,RU,1644356490,Kyra,4.3339999999999925
corinto,37.9407,22.9573,281.71,49.0,74.0,1.79,GR,1644356490,Corinth,47.408
sitka,57.0531,-135.33,280.09,87.0,100.0,10.8,US,1644356334,Sitka,44.492
mahibadhoo,3.7833,72.9667,300.63,71.0,100.0,4.8,MV,1644356490,Mahibadhoo,81.46400000000003
bohodukhiv,50.1647,35.5276,273.17,93.0,99.0,4.77,UA,1644356491,Bohodukhiv,32.03600000000007
portree,57.4129,-6.1942,279.18,84.0,100.0,10.38,GB,1644356491,Portree,42.854000000000056
olga,43.7444,135.2892,262.64,83.0,8.0,2.33,RU,1644356491,Ol'ga,13.082000000000015
agua branca,-5.8922,-42.6361,298.91,72.0,61.0,1.38,BR,1644356492,Água Branca,78.36800000000008
yuci,37.6803,112.7319,265.01,73.0,11.0,2.0,CN,1644356492,Yuci,17.348000000000024
aykhal,66,111.5,243.87,100.0,78.0,2.04,RU,1644356493,Aykhal,-20.70399999999995
newport,51.5877,-2.9984,283.96,84.0,100.0,0.45,GB,1644356299,Newport,51.458000000000006
sur,22.5667,59.5289,293.77,55.0,0.0,4.24,OM,1644356493,Sur,69.11600000000001
talara,-4.5772,-81.2719,299.57,57.0,75.0,4.63,PE,1644356493,Talara,79.55600000000003
port macquarie,-31.4333,152.9167,295.87,72.0,6.0,2.22,AU,1644356227,Port Macquarie,72.89600000000004
petauke,-14.2426,31.3253,291.21,97.0,42.0,1.98,ZM,1644356494,Petauke,64.50800000000001
cessnock,-32.8333,151.35,293.78,66.0,2.0,1.63,AU,1644356413,Cessnock,69.13399999999999
flin flon,54.7682,-101.865,267.06,79.0,100.0,5.66,CA,1644356494,Flin Flon,21.038000000000046
kaeo,-35.1,173.7833,297.22,98.0,84.0,4.06,NZ,1644356495,Kaeo,75.32600000000009
semenivka,52.1783,32.5818,270.59,94.0,100.0,3.37,UA,1644356495,Semenivka,27.391999999999996
cradock,-32.1642,25.6192,296.18,60.0,26.0,1.64,ZA,1644356495,Cradock,73.45400000000005
mora,11.0461,14.1401,294.37,20.0,74.0,2.3,CM,1644356496,Mora,70.19600000000005
shenzhen,22.5455,114.0683,289.38,90.0,100.0,2.03,CN,1644356231,Shenzhen,61.214000000000034
aswan,24.0934,32.907,291.76,20.0,0.0,3.09,EG,1644356497,Aswān,65.49800000000002
pacific grove,36.6177,-121.9166,299.05,44.0,0.0,2.06,US,1644356497,Pacific Grove,78.62000000000006
miandrivazo,-19.5167,45.4667,298.08,91.0,100.0,0.21,MG,1644356497,Miandrivazo,76.87400000000001
kahului,20.8947,-156.47,300.16,60.0,20.0,5.36,US,1644355984,Kahului,80.61800000000008
lakatoro,-16.0999,167.4164,300.54,84.0,100.0,13.01,VU,1644356498,Lakatoro,81.30200000000008
teya,60.3778,92.6267,242.07,100.0,42.0,0.57,RU,1644356498,Teya,-23.943999999999974
yei,4.095,30.6779,296.06,33.0,92.0,1.33,SS,1644356498,Yei,73.23800000000004
luanda,-8.8368,13.2343,297.15,88.0,0.0,3.6,AO,1644356267,Luanda,75.2
zambezi,-13.5432,23.1047,291.91,95.0,97.0,1.83,ZM,1644356499,Zambezi,65.76800000000009
cabra,37.4725,-4.4421,283.84,62.0,0.0,2.34,ES,1644356499,Cabra,51.242
nuuk,64.1835,-51.7216,259.49,56.0,75.0,8.23,GL,1644356439,Nuuk,7.412000000000056
pital,2.2665,-75.8044,297.09,72.0,82.0,2.49,CO,1644356500,Pital,75.092
kruisfontein,-34.0033,24.7314,293.15,54.0,47.0,3.05,ZA,1644356500,Kruisfontein,68.0
soyo,-6.1349,12.3689,298.55,83.0,42.0,3.49,AO,1644356500,Soyo,77.72000000000006
biak,-0.9131,122.8766,297.01,81.0,100.0,1.34,ID,1644356501,Biak,74.94800000000002
urusha,54.05,122.9,256.73,95.0,100.0,2.86,RU,1644356501,Urusha,2.4440000000000737
baragua,21.6967,-78.6328,300.77,58.0,81.0,2.63,CU,1644356501,Baraguá,81.71600000000001
lagoa,39.05,-27.9833,288.55,74.0,86.0,5.9,PT,1644356502,Lagoa,59.72000000000006
coari,-4.085,-63.1414,297.9,95.0,100.0,1.13,BR,1644356502,Coari,76.55
ambilobe,-13.2,49.05,296.65,95.0,92.0,1.44,MG,1644356502,Ambilobe,74.3
honningsvag,70.9821,25.9704,271.19,76.0,100.0,11.32,NO,1644356503,Honningsvåg,28.472000000000037
tessalit,20.1986,1.0114,293.19,9.0,0.0,4.32,ML,1644356503,Tessalit,68.07200000000003
pisco,-13.7,-76.2167,297.05,64.0,0.0,4.63,PE,1644356504,Pisco,75.02000000000007
itaituba,-4.2761,-55.9836,299.24,94.0,40.0,2.57,BR,1644356504,Itaituba,78.96200000000006
ust-kuyga,70.0167,135.6,231.7,100.0,100.0,3.44,RU,1644356504,Ust-Kuyga,-42.609999999999985
great yarmouth,52.6083,1.7305,283.29,83.0,99.0,8.53,GB,1644356314,Great Yarmouth,50.25200000000008
xam nua,20.4197,104.0439,287.58,93.0,87.0,1.34,LA,1644356505,Xam Nua,57.97400000000001
san juan,-31.5375,-68.5364,306.89,18.0,0.0,3.18,AR,1644356505,San Juan,92.73200000000001
minab,27.1467,57.0801,286.87,58.0,0.0,1.05,IR,1644356505,Mīnāb,56.69600000000005
goderich,43.7501,-81.7165,271.43,68.0,96.0,5.14,CA,1644356506,Goderich,28.904000000000053
oak harbor,48.2932,-122.6432,283.58,86.0,100.0,4.63,US,1644356309,Oak Harbor,50.774000000000015
aksarka,66.5606,67.7975,253.0,99.0,100.0,5.38,RU,1644356506,Aksarka,-4.2699999999999605
atasu,48.6814,71.6433,259.33,89.0,100.0,3.19,KZ,1644356506,Atasū,7.124000000000013
zatoka,46.0725,30.4654,273.45,68.0,19.0,7.98,UA,1644356507,Zatoka,32.54000000000002
aguie,13.506,7.7786,293.6,10.0,32.0,4.7,NE,1644356507,Aguié,68.81000000000009
boone,39.0334,-92.3335,287.4,68.0,87.0,6.11,US,1644356442,Boone,57.65
araouane,18.9048,-3.5265,293.78,9.0,0.0,4.83,ML,1644356507,Araouane,69.13399999999999
sujangarh,27.7011,74.4649,289.97,63.0,62.0,5.09,IN,1644356508,Sujangarh,62.27600000000009
rundu,-17.9333,19.7667,293.72,69.0,43.0,1.78,NA,1644356508,Rundu,69.0260000000001
koslan,63.4564,48.8989,264.95,93.0,100.0,4.14,RU,1644356509,Koslan,17.24000000000002
portobelo,9.55,-79.65,305.29,71.0,20.0,4.12,PA,1644356509,Portobelo,89.85200000000007
la ronge,55.1001,-105.2842,264.29,67.0,75.0,7.2,CA,1644356509,La Ronge,16.052000000000078
wardha,20.75,78.6167,292.33,36.0,100.0,1.44,IN,1644356510,Wardha,66.52400000000002
mount pleasant,32.7941,-79.8626,284.81,79.0,20.0,2.57,US,1644356510,Mt. Pleasant,52.98800000000004
arkhara,49.4212,130.0842,251.48,100.0,100.0,1.82,RU,1644356510,Arkhara,-7.005999999999979
tayu,-6.5397,111.0518,297.8,89.0,100.0,1.23,ID,1644356511,Tayu,76.37000000000006
novoagansk,61.9449,76.6625,248.33,99.0,7.0,2.95,RU,1644356511,Novoagansk,-12.675999999999938
klaksvik,62.2266,-6.589,274.66,65.0,99.0,18.38,FO,1644356344,Klaksvík,34.71800000000009
znamenskoye,57.1281,73.8282,253.43,99.0,63.0,2.13,RU,1644356511,Znamenskoye,-3.4959999999999454
kenda,23.2,86.5333,289.46,62.0,1.0,0.4,IN,1644356512,Kenda,61.358000000000004
hervey bay,-25.2986,152.8535,297.06,83.0,29.0,2.68,AU,1644356512,Hervey Bay,75.03800000000004
cape coast,5.1053,-1.2466,299.65,84.0,35.0,3.52,GH,1644356512,Cape Coast,79.7
nome,64.5011,-165.4064,256.19,55.0,100.0,8.23,US,1644356499,Nome,1.4720000000000368
lakes entrance,-37.8811,147.981,291.57,66.0,6.0,1.33,AU,1644356513,Lakes Entrance,65.15600000000003
omsukchan,62.5333,155.8,242.49,71.0,86.0,1.25,RU,1644356513,Omsukchan,-23.187999999999946
tarrafal,15.2833,-23.7667,294.59,78.0,0.0,4.81,CV,1644356514,Tarrafal,70.592
kirakira,-10.4544,161.9205,301.12,79.0,100.0,4.76,SB,1644356514,Kirakira,82.34600000000005
mpika,-11.8343,31.4529,289.5,94.0,95.0,0.37,ZM,1644356514,Mpika,61.43000000000004
khairpur nathan shah,27.0936,67.7337,288.24,58.0,4.0,3.16,PK,1644356515,Khairpur Nathan Shah,59.162000000000056
northam,51.0333,-4.2167,283.16,91.0,100.0,7.14,GB,1644356515,Northam,50.018000000000086
hovd,48.0056,91.6419,248.28,79.0,13.0,0.99,MN,1644356515,Khovd,-12.765999999999956
linay,8.5167,123.1333,298.39,90.0,100.0,6.95,PH,1644356516,Linay,77.43200000000002
bartica,6.4,-58.6167,302.33,72.0,60.0,2.61,GY,1644356516,Bartica,84.52400000000002
voh,-20.9667,164.7,299.94,89.0,93.0,6.15,NC,1644356516,Voh,80.22200000000004
rodeo,38.033,-122.2669,297.91,47.0,0.0,1.79,US,1644356517,Rodeo,76.56800000000008
coquimbo,-29.9533,-71.3436,293.0,72.0,75.0,5.14,CL,1644356414,Coquimbo,67.73000000000005
katsina,12.9894,7.6006,293.91,12.0,47.0,4.56,NG,1644356517,Katsina,69.36800000000008
tazmalt,36.3868,4.3989,281.33,83.0,0.0,0.89,DZ,1644356518,Tazmalt,46.72400000000001
ambulu,-8.345,113.6058,297.11,89.0,66.0,1.42,ID,1644356518,Ambulu,75.12800000000007
numaligarh,26.6333,93.75,286.08,80.0,54.0,1.16,IN,1644356518,Numāligarh,55.274000000000015
salinopolis,-0.6136,-47.3561,299.15,85.0,92.0,3.23,BR,1644356519,Salinópolis,78.8
samana,19.2056,-69.3369,301.27,74.0,40.0,5.14,DO,1644356519,Samaná,82.61600000000001
balclutha,-46.2339,169.75,288.11,83.0,99.0,2.37,NZ,1644356519,Balclutha,58.92800000000007
nizhyn,51.048,31.8869,271.53,94.0,100.0,2.77,UA,1644356520,Nizhyn,29.083999999999993
zhezkazgan,47.8043,67.7144,266.11,96.0,100.0,3.37,KZ,1644356520,Zhezkazgan,19.328000000000067
salacgriva,57.7536,24.3581,274.76,90.0,85.0,6.72,LV,1644356520,Salacgrīva,34.898000000000025
mabua,9.8089,125.4422,298.6,88.0,99.0,5.16,PH,1644356521,Mabua,77.81000000000009
king city,36.2127,-121.126,296.93,22.0,6.0,0.35,US,1644356521,King City,74.80400000000006
sanming,26.2486,117.6186,281.42,97.0,98.0,0.16,CN,1644356522,Sanming,46.88600000000007
flensburg,54.7833,9.4333,280.32,93.0,99.0,8.23,DE,1644356351,Flensburg,44.90600000000003
broome,42.2506,-75.833,274.05,75.0,100.0,4.12,US,1644356522,Broome,33.62000000000006
mandalgovi,45.7625,106.2708,257.05,63.0,3.0,1.97,MN,1644356522,Mandalgovi,3.02000000000006
gladstone,-23.85,151.25,295.11,78.0,25.0,2.57,AU,1644356233,Gladstone,71.52800000000006
petrykiv,49.5332,25.5809,273.53,97.0,100.0,8.26,UA,1644356523,Petrykiv,32.68399999999999
lleida,41.6167,0.6167,281.48,78.0,0.0,1.54,ES,1644356524,Lleida,46.99400000000007
mamit,23.9333,92.4833,280.02,81.0,5.0,1.18,IN,1644356524,Mamit,44.36600000000001
uppsala,60,17.75,275.25,80.0,2.0,2.89,SE,1644356524,Uppsala County,35.780000000000044
paamiut,61.994,-49.6678,255.13,80.0,100.0,5.04,GL,1644356525,Paamiut,-0.4359999999999644
mareeba,-17,145.4333,295.62,94.0,31.0,1.16,AU,1644356525,Mareeba,72.44600000000005
matara,5.9485,80.5353,297.07,78.0,99.0,0.52,LK,1644356525,Matara,75.05600000000003
gorontalo,0.5412,123.0595,295.88,94.0,100.0,1.47,ID,1644356526,Gorontalo,72.91400000000003
martapura,-3.4167,114.85,296.2,100.0,100.0,2.57,ID,1644356526,Martapura,73.49000000000002
portland,45.5234,-122.6762,286.36,82.0,76.0,1.34,US,1644355846,Portland,55.77800000000006
san rafael del sur,11.8485,-86.4384,305.69,41.0,35.0,1.51,NI,1644356527,San Rafael del Sur,90.57200000000003
maroon town,18.3446,-77.7954,295.15,85.0,79.0,0.77,JM,1644356527,Maroon Town,71.6
atambua,-9.1061,124.8925,296.47,92.0,100.0,0.68,ID,1644356527,Atambua,73.97600000000008
port lincoln,-34.7333,135.8667,291.81,75.0,100.0,4.32,AU,1644356528,Port Lincoln,65.58800000000005
srednekolymsk,67.45,153.6833,230.95,99.0,71.0,2.61,RU,1644356528,Srednekolymsk,-43.95999999999998
fonte boa,-2.4959,-66.2662,295.15,97.0,100.0,1.29,BR,1644356528,Fonte Boa,71.6
