city,lat,lng,max temp,humidity,cloudiness,windspeed,country,date,name,max temp F
axim,4.8699,-2.2405,298.39,91.0,58.0,2.17,GH,1644453528,Esim,77.43200000000002
chuy,-33.6971,-53.4616,291.82,76.0,0.0,3.86,UY,1644453528,Chui,65.60600000000002
ushuaia,-54.8,-68.3,281.96,46.0,40.0,9.26,AR,1644453529,Ushuaia,47.858000000000004
mataura,-46.1927,168.8643,296.19,53.0,44.0,1.12,NZ,1644453529,Mataura,73.47200000000004
carnarvon,-24.8667,113.6333,300.19,69.0,0.0,3.09,AU,1644453529,Carnarvon,80.67200000000004
denpasar,-8.65,115.2167,298.96,88.0,75.0,1.03,ID,1644453258,Denpasar,78.458
avarua,-21.2078,-159.775,300.18,83.0,20.0,6.69,CK,1644453530,Avarua,80.65400000000005
jamestown,42.097,-79.2353,280.77,45.0,0.0,4.12,US,1644453501,Jamestown,45.71600000000001
lompoc,34.6391,-120.4579,302.32,28.0,0.0,4.12,US,1644453316,Lompoc,84.50600000000003
kapaa,22.0752,-159.319,299.33,68.0,0.0,4.63,US,1644453530,Kapaa,79.12400000000001
ilulissat,69.2167,-51.1,264.16,79.0,40.0,8.75,GL,1644453531,Ilulissat,15.818000000000087
luderitz,-26.6481,15.1594,296.23,52.0,76.0,7.61,NA,1644453531,Lüderitz,73.54400000000007
nikolskoye,59.7035,30.7861,275.21,98.0,100.0,4.88,RU,1644453531,Nikolskoye,35.708000000000006
karratha,-20.7377,116.8463,303.74,62.0,6.0,6.42,AU,1644453532,Karratha,87.06200000000005
busselton,-33.65,115.3333,295.4,46.0,4.0,4.34,AU,1644453532,Busselton,72.05
kaitangata,-46.2817,169.8464,293.11,82.0,88.0,1.56,NZ,1644453532,Kaitangata,67.92800000000007
hasaki,35.7333,140.8333,277.37,81.0,100.0,6.51,JP,1644453533,Hasaki,39.596000000000046
saskylakh,71.9167,114.0833,254.23,92.0,99.0,5.43,RU,1644453284,Saskylakh,-2.055999999999976
carupano,10.6678,-63.2585,296.94,86.0,8.0,4.29,VE,1644453533,Carupano,74.82200000000003
rikitea,-23.1203,-134.9692,299.38,70.0,48.0,6.94,PF,1644453297,Rikitea,79.21400000000003
garowe,8.4054,48.4845,290.56,84.0,1.0,3.53,SO,1644453533,Garoowe,63.338000000000044
albany,42.6001,-73.9662,277.47,67.0,66.0,1.99,US,1644452974,Albany,39.77600000000009
chingirlau,51.095,54.0814,265.03,89.0,100.0,6.88,KZ,1644453534,Chingirlau,17.383999999999993
markova,48.6758,24.4138,275.45,90.0,67.0,2.04,UA,1644453534,Markova,36.14000000000002
alofi,-19.0595,-169.9187,303.09,70.0,75.0,4.12,NU,1644453535,Alofi,85.892
hilo,19.7297,-155.09,299.0,70.0,75.0,3.6,US,1644453356,Hilo,78.53000000000004
cape town,-33.9258,18.4232,293.64,84.0,75.0,2.57,ZA,1644453535,Cape Town,68.88200000000002
kafue,-15.7691,28.1814,291.34,95.0,100.0,0.95,ZM,1644453535,Kafue,64.74199999999999
bathsheba,13.2167,-59.5167,298.49,73.0,75.0,7.72,BB,1644453536,Bathsheba,77.61200000000005
pitsunda,43.1592,40.3378,276.25,84.0,100.0,5.48,GE,1644453536,Pitsunda,37.58000000000004
maceio,-9.6658,-35.7353,298.84,83.0,20.0,4.12,BR,1644453415,Maceió,78.24199999999999
sitka,57.0531,-135.33,279.09,87.0,100.0,8.75,US,1644453322,Sitka,42.69199999999999
longyearbyen,78.2186,15.6401,263.06,85.0,40.0,2.57,SJ,1644453537,Longyearbyen,13.838000000000044
mount isa,-20.7333,139.5,305.02,51.0,76.0,3.6,AU,1644453537,Mount Isa,89.36600000000001
puerto ayora,-0.7393,-90.3518,296.43,81.0,91.0,3.12,EC,1644453537,Puerto Ayora,73.90400000000005
castro,-24.7911,-50.0119,288.69,97.0,7.0,3.19,BR,1644453538,Castro,59.97200000000004
pangnirtung,66.1451,-65.7125,244.67,98.0,100.0,2.02,CA,1644453538,Pangnirtung,-19.26399999999999
san quintin,30.4833,-115.95,291.34,44.0,0.0,2.22,MX,1644453538,San Quintín,64.74199999999999
cherskiy,68.75,161.3,233.24,99.0,90.0,2.27,RU,1644453304,Cherskiy,-39.83799999999994
arlit,18.7369,7.3853,291.91,9.0,0.0,4.24,NE,1644453539,Arlit,65.76800000000009
sinnamary,5.3833,-52.95,297.8,86.0,33.0,3.85,GF,1644453539,Sinnamary,76.37000000000006
moindou,-21.6924,165.677,302.12,88.0,100.0,9.37,NC,1644453539,Moindou,84.14600000000004
kodiak,57.79,-152.4072,266.88,33.0,0.0,4.12,US,1644453523,Saint Paul Harbor,20.714000000000034
victoria,22.2855,114.1577,292.01,84.0,95.0,3.58,HK,1644453540,Hong Kong,65.94800000000002
porto,41.1496,-8.611,283.73,83.0,9.0,1.54,PT,1644453328,Porto,51.044000000000075
khatanga,71.9667,102.5,252.84,94.0,98.0,6.15,RU,1644453541,Khatanga,-4.55799999999995
dikson,73.5069,80.5464,258.33,94.0,100.0,9.31,RU,1644453541,Dikson,5.324000000000012
port alfred,-33.5906,26.891,291.54,86.0,2.0,4.14,ZA,1644453541,Port Alfred,65.10200000000007
vakhrushev,48.9833,142.9667,264.54,80.0,21.0,2.05,RU,1644453542,Vakhrushev,16.502000000000077
arraial do cabo,-22.9661,-42.0278,294.69,87.0,98.0,2.95,BR,1644453542,Arraial do Cabo,70.77200000000003
eureka,40.8021,-124.1637,292.97,59.0,0.0,2.65,US,1644453322,Eureka,67.67600000000009
hobart,-42.8794,147.3294,295.38,46.0,40.0,6.69,AU,1644453415,Hobart,72.01400000000004
russell,32.3502,-85.1999,286.72,55.0,0.0,0.0,US,1644453543,Russell,56.42600000000009
adrar,20.5022,-10.0711,290.64,14.0,0.0,5.46,MR,1644453543,Adrar,63.48200000000001
porto novo,6.4965,2.6036,301.05,89.0,3.0,1.98,BJ,1644453543,Porto-Novo,82.22000000000006
vestmannaeyjar,63.4427,-20.2734,269.69,71.0,92.0,8.77,IS,1644453297,Vestmannaeyjar,25.772000000000038
mirpur khas,25.5251,69.0159,288.29,29.0,0.0,2.64,PK,1644453544,Mirpur Khas,59.25200000000008
kodinsk,58.6881,99.1844,240.73,100.0,71.0,0.97,RU,1644453544,Kodinsk,-26.355999999999973
yellowknife,62.456,-114.3525,251.71,87.0,100.0,7.2,CA,1644453544,Yellowknife,-6.591999999999942
bluff,-46.6,168.3333,296.37,89.0,67.0,4.59,NZ,1644453545,Bluff,73.79600000000005
saint-joseph,-21.3667,55.6167,296.36,80.0,13.0,1.38,RE,1644453545,Saint-Joseph,73.77800000000006
new norfolk,-42.7826,147.0587,294.63,32.0,17.0,3.76,AU,1644453546,New Norfolk,70.66400000000003
jinxiang,27.4327,120.6062,282.79,82.0,100.0,3.65,CN,1644453546,Jinxiang,49.352000000000075
ust-nera,64.5667,143.2,242.45,98.0,71.0,2.21,RU,1644453546,Ust-Nera,-23.259999999999977
san andres,12.5847,-81.7006,300.16,69.0,20.0,3.6,CO,1644453547,San Andrés,80.61800000000008
richards bay,-28.783,32.0377,294.0,92.0,0.0,1.3,ZA,1644453547,Richards Bay,69.53000000000004
zeewolde,52.3333,5.4833,282.1,94.0,100.0,1.79,NL,1644453547,Gemeente Zeewolde,48.110000000000085
sioux lookout,50.1001,-91.917,261.36,78.0,75.0,8.23,CA,1644453547,Sioux Lookout,10.778000000000066
mogadishu,2.0371,45.3438,297.79,77.0,100.0,9.27,SO,1644453548,Mogadishu,76.35200000000007
butaritari,3.0707,172.7902,300.92,77.0,100.0,6.33,KI,1644453548,Butaritari,81.98600000000008
penalva,-3.2942,-45.1736,296.07,98.0,100.0,1.24,BR,1644453548,Penalva,73.25600000000003
ribeira grande,38.5167,-28.7,288.43,71.0,1.0,6.86,PT,1644453549,Ribeira Grande,59.504000000000055
chute-aux-outardes,49.1168,-68.399,271.32,86.0,100.0,5.66,CA,1644453549,Chute-aux-Outardes,28.706000000000028
port elizabeth,-33.918,25.5701,291.27,83.0,12.0,3.68,ZA,1644453535,Port Elizabeth,64.61600000000001
kavieng,-2.5744,150.7967,302.06,72.0,30.0,2.62,PG,1644453550,Kavieng,84.03800000000004
kalulushi,-12.8378,28.0919,290.1,97.0,100.0,1.67,ZM,1644453550,Kalulushi,62.51000000000008
aden,12.7794,45.0367,297.61,68.0,20.0,8.23,YE,1644453361,Aden,76.02800000000006
mohan,26.7833,80.6833,284.12,89.0,0.0,3.48,IN,1644453550,Mohān,51.74600000000005
ostersund,63.1792,14.6357,272.4,64.0,86.0,6.17,SE,1644453551,Östersund,30.65
codrington,-38.2667,141.9667,291.98,57.0,93.0,6.64,AU,1644453551,Codrington,65.89400000000008
smiltene,57.4244,25.9016,275.82,83.0,98.0,6.34,LV,1644453551,Smiltene,36.806000000000026
khorixas,-20.3667,14.9667,294.79,80.0,100.0,3.32,NA,1644453552,Khorixas,70.95200000000008
aykhal,66,111.5,251.71,78.0,100.0,1.26,RU,1644453312,Aykhal,-6.591999999999942
clyde river,70.4692,-68.5914,247.28,76.0,100.0,8.75,CA,1644453552,Clyde River,-14.56599999999996
chicama,-7.8447,-79.1469,293.45,68.0,71.0,1.9,PE,1644453553,Chicama,68.54000000000002
hithadhoo,-0.6,73.0833,300.71,74.0,10.0,4.89,MV,1644453553,Hithadhoo,81.608
provideniya,64.3833,-173.3,254.21,60.0,0.0,9.0,RU,1644453541,Provideniya,-2.091999999999942
abancay,-13.6339,-72.8814,287.94,95.0,88.0,2.12,PE,1644453553,Abancay,58.622000000000035
zonguldak,41.25,31.8333,272.16,99.0,100.0,1.44,TR,1644453554,Zonguldak,30.218000000000085
cayenne,4.9333,-52.3333,297.64,90.0,75.0,0.45,GF,1644453295,Cayenne,76.08200000000002
kaeo,-35.1,173.7833,298.33,84.0,100.0,4.46,NZ,1644453554,Kaeo,77.32400000000001
ilula,-7.6766,36.0366,289.74,95.0,100.0,0.68,TZ,1644453555,Ilula,61.86200000000006
qasigiannguit,68.8193,-51.1922,264.29,89.0,100.0,6.52,GL,1644453555,Qasigiannguit,16.052000000000078
shebalino,51.2917,85.6772,252.95,98.0,93.0,1.77,RU,1644453555,Shebalino,-4.359999999999978
bethel,41.3712,-73.414,276.21,72.0,0.0,1.54,US,1644453556,Bethel,37.508
aripuana,-9.1667,-60.6333,295.98,98.0,100.0,0.73,BR,1644453556,Aripuanã,73.09400000000008
palmer,42.1584,-72.3287,275.93,66.0,40.0,3.6,US,1644453557,Palmer,37.004000000000055
saint-philippe,-21.3585,55.7679,296.92,80.0,24.0,1.25,RE,1644453557,Saint-Philippe,74.78600000000007
la ronge,55.1001,-105.2842,261.29,79.0,100.0,2.06,CA,1644453557,La Ronge,10.65200000000008
dubbo,-32.25,148.6167,303.22,30.0,40.0,3.09,AU,1644453558,Dubbo,86.12600000000009
hermanus,-34.4187,19.2345,293.09,88.0,99.0,1.1,ZA,1644453558,Hermanus,67.892
gisborne,-38.6533,178.0042,299.24,70.0,61.0,2.15,NZ,1644453558,Gisborne,78.96200000000006
yulara,-25.2406,130.9889,302.06,32.0,40.0,7.72,AU,1644453559,Yulara,84.03800000000004
agvali,42.5385,46.1197,274.26,82.0,45.0,2.65,RU,1644453559,Agvali,33.998000000000026
la tuque,47.4334,-72.7824,270.29,68.0,100.0,2.57,CA,1644453263,La Tuque,26.85200000000008
ancud,-41.8697,-73.8203,287.89,75.0,100.0,3.58,CL,1644453559,Ancud,58.53200000000002
ossora,59.2353,163.0719,254.35,95.0,39.0,0.45,RU,1644453560,Ossora,-1.8399999999999679
chokurdakh,70.6333,147.9167,242.42,98.0,100.0,5.15,RU,1644453560,Chokurdakh,-23.313999999999986
rocha,-34.4833,-54.3333,289.53,84.0,0.0,2.81,UY,1644453560,Rocha,61.483999999999995
butterworth,5.3991,100.3638,299.26,95.0,20.0,1.54,MY,1644453561,Butterworth,78.99800000000002
punta arenas,-53.15,-70.9167,282.21,53.0,40.0,11.83,CL,1644453561,Punta Arenas,48.30800000000001
newport,51.5877,-2.9984,281.18,85.0,100.0,2.43,GB,1644452971,Newport,46.45400000000005
pisco,-13.7,-76.2167,295.38,88.0,40.0,2.06,PE,1644453562,Pisco,72.01400000000004
acapulco,16.8634,-99.8901,301.05,65.0,40.0,3.6,MX,1644453509,Acapulco de Juárez,82.22000000000006
vardo,70.3705,31.1107,271.48,77.0,100.0,9.11,NO,1644453562,Vardø,28.994000000000074
san patricio,28.017,-97.5169,292.53,49.0,3.0,3.93,US,1644453562,San Patricio,66.88399999999999
svetlyy,54.675,20.1347,278.18,89.0,60.0,8.26,RU,1644453563,Tsimmerbude,41.05400000000005
zhuhai,22.2769,113.5678,291.87,82.0,40.0,4.12,CN,1644453504,Zhuhai,65.69600000000005
klaksvik,62.2266,-6.589,274.66,61.0,100.0,9.5,FO,1644453305,Klaksvík,34.71800000000009
hofn,64.2539,-15.2082,267.47,70.0,71.0,7.46,IS,1644453563,Hofn,21.77600000000009
pacific grove,36.6177,-121.9166,297.12,59.0,0.0,3.58,US,1644453537,Pacific Grove,75.14600000000004
lavrentiya,65.5833,-171,242.69,93.0,30.0,3.53,RU,1644453329,Lavrentiya,-22.82799999999996
mongu,-15.2484,23.1274,292.56,91.0,100.0,1.35,ZM,1644453564,Mongu,66.93800000000005
qaanaaq,77.484,-69.3632,243.74,70.0,97.0,3.2,GL,1644453564,Qaanaaq,-20.937999999999946
komsomolskiy,40.4272,71.7189,274.83,80.0,100.0,3.09,UZ,1644453565,Yangi Marg`ilon,35.024000000000015
zhigansk,66.7697,123.3711,236.37,98.0,84.0,3.65,RU,1644453565,Zhigansk,-34.20399999999995
poso,-1.3959,120.7524,300.66,71.0,100.0,0.29,ID,1644453565,Poso,81.51800000000009
tucumcari,35.1717,-103.725,287.06,17.0,0.0,1.54,US,1644453566,Tucumcari,57.038000000000046
kieta,-6.2167,155.6333,302.81,72.0,43.0,3.22,PG,1644453566,Kieta,85.38800000000005
mahebourg,-20.4081,57.7,296.62,75.0,90.0,2.15,MU,1644453272,Mahébourg,74.24600000000005
formosa do rio preto,-11.0483,-45.1931,298.29,69.0,100.0,0.43,BR,1644453566,Formosa do Rio Preto,77.25200000000008
port blair,11.6667,92.75,299.17,78.0,20.0,4.12,IN,1644453567,Port Blair,78.83600000000007
bambous virieux,-20.3428,57.7575,296.6,75.0,93.0,2.38,MU,1644453567,Bambous Virieux,74.21000000000008
orcopampa,-15.2661,-72.3417,281.86,69.0,100.0,2.03,PE,1644453568,Orcopampa,47.67800000000007
severo-kurilsk,50.6789,156.125,272.6,75.0,100.0,8.58,RU,1644453538,Severo-Kuril'sk,31.010000000000083
los llanos de aridane,28.6585,-17.9182,293.77,41.0,0.0,2.24,ES,1644453568,Los Llanos de Aridane,69.11600000000001
antanifotsy,-19.65,47.3167,289.93,96.0,100.0,1.2,MG,1644453568,Antanifotsy,62.20400000000005
bredasdorp,-34.5322,20.0403,291.77,88.0,100.0,0.51,ZA,1644453569,Bredasdorp,65.516
fortuna,40.5982,-124.1573,292.83,55.0,20.0,4.12,US,1644453569,Fortuna,67.424
makakilo city,21.3469,-158.0858,299.64,58.0,75.0,6.17,US,1644453569,Makakilo City,79.68200000000002
louveira,-23.0864,-46.9506,294.96,91.0,100.0,4.65,BR,1644453570,Louveira,71.25800000000001
penzance,50.1186,-5.5371,281.71,83.0,100.0,4.54,GB,1644453570,Penzance,47.408
caravelas,-17.7125,-39.2481,298.25,88.0,80.0,2.61,BR,1644453571,Caravelas,77.18000000000004
cabo san lucas,22.8909,-109.9124,296.76,60.0,20.0,3.6,MX,1644453571,Cabo San Lucas,74.49800000000002
fenoarivo,-18.933,47.4354,291.19,100.0,40.0,0.0,MG,1644453571,Fenoarivo,64.47200000000004
touros,-5.1989,-35.4608,300.65,70.0,69.0,4.58,BR,1644453572,Touros,81.5
narsaq,60.9167,-46.05,264.27,71.0,99.0,4.31,GL,1644453572,Narsaq,16.01600000000001
placido de castro,-10.3353,-67.1856,296.31,94.0,98.0,1.92,BR,1644453572,Plácido de Castro,73.68800000000005
kahului,20.8947,-156.47,302.74,60.0,40.0,7.72,US,1644453082,Kahului,85.26200000000006
oyon,-10.6681,-76.7731,282.07,94.0,100.0,1.08,PE,1644453573,Oyón,48.056000000000026
cidreira,-30.1811,-50.2056,295.43,70.0,99.0,6.3,BR,1644453573,Cidreira,72.10400000000006
college,64.8569,-147.8028,253.96,76.0,100.0,0.0,US,1644453460,College,-2.5419999999999447
honiara,-9.4333,159.95,302.39,78.0,47.0,4.11,SB,1644453279,Honiara,84.63200000000002
vaini,-21.2,-175.2,299.92,84.0,12.0,8.65,TO,1644453574,Vaini,80.18600000000006
tasiilaq,65.6145,-37.6368,262.24,54.0,100.0,4.12,GL,1644453574,Tasiilaq,12.362000000000059
moss vale,-34.55,150.3833,299.13,30.0,5.0,2.71,AU,1644453574,Moss Vale,78.76400000000004
tazovskiy,67.4667,78.7,254.06,96.0,58.0,4.8,RU,1644453575,Tazovsky,-2.361999999999952
hamilton,39.1834,-84.5333,281.62,54.0,75.0,5.14,US,1644453575,Hamilton,47.24600000000005
mar del plata,-38.0023,-57.5575,294.19,89.0,85.0,5.81,AR,1644453402,Mar del Plata,69.87200000000004
sao filipe,14.8961,-24.4956,297.8,59.0,97.0,1.9,CV,1644453576,São Filipe,76.37000000000006
upernavik,72.7868,-56.1549,247.42,81.0,100.0,5.77,GL,1644453576,Upernavik,-14.313999999999979
sechura,-5.5569,-80.8222,296.34,65.0,97.0,6.29,PE,1644453576,Sechura,73.74199999999999
pitimbu,-7.4706,-34.8086,300.48,71.0,100.0,5.36,BR,1644453577,Pitimbu,81.19400000000007
esperance,-33.8667,121.9,294.06,59.0,7.0,4.7,AU,1644453577,Esperance,69.63800000000005
shenandoah,30.4013,-91.0009,288.14,51.0,4.0,1.76,US,1644453305,Shenandoah,58.98200000000001
praia da vitoria,38.7333,-27.0667,287.29,88.0,40.0,6.67,PT,1644453577,Praia da Vitória,57.452000000000076
jalu,29.0331,21.5482,282.88,58.0,5.0,4.81,LY,1644453578,Jalu,49.51400000000003
muisne,0.6,-80.0333,297.85,85.0,95.0,1.36,EC,1644453578,Muisne,76.46000000000008
cachipay,5.2667,-74.5667,295.56,94.0,43.0,0.86,CO,1644453578,Cachipay,72.33800000000005
airai,-8.9266,125.4092,294.37,76.0,75.0,0.23,TL,1644453579,Airai,70.19600000000005
puro,12.4841,123.3827,299.64,71.0,83.0,6.85,PH,1644453579,Puro,79.68200000000002
shiraz,29.6036,52.5388,272.84,64.0,0.0,0.0,IR,1644453579,Shiraz,31.441999999999997
zdvinsk,54.7021,78.661,247.18,95.0,5.0,3.31,RU,1644453580,Zdvinsk,-14.745999999999945
lebu,-37.6167,-73.65,288.62,81.0,28.0,9.45,CL,1644453580,Lebu,59.846000000000046
tuktoyaktuk,69.4541,-133.0374,243.15,76.0,75.0,8.23,CA,1644453580,Tuktoyaktuk,-21.999999999999957
constitucion,-35.3333,-72.4167,288.05,85.0,0.0,3.83,CL,1644453460,Constitución,58.820000000000064
mancio lima,-7.6142,-72.8958,294.98,99.0,98.0,0.79,BR,1644453581,Mâncio Lima,71.29400000000007
tilichiki,60.4667,166.1,250.7,75.0,5.0,2.54,RU,1644453331,Tilichiki,-8.409999999999982
jumla,29.2747,82.1838,264.31,78.0,3.0,3.45,NP,1644453543,Jumla,16.088000000000044
southbridge,42.0751,-72.0334,275.77,68.0,57.0,0.89,US,1644453582,Southbridge,36.71600000000001
kruisfontein,-34.0033,24.7314,289.46,79.0,0.0,2.78,ZA,1644453582,Kruisfontein,61.358000000000004
linqiong,30.4159,103.4609,278.05,89.0,98.0,0.45,CN,1644453582,Linqiong,40.820000000000064
shagonar,51.5333,92.8,246.75,97.0,91.0,0.57,RU,1644453583,Shagonar,-15.51999999999996
georgetown,5.4112,100.3354,299.2,94.0,20.0,1.54,MY,1644453504,George Town,78.89000000000001
aleksandrov gay,50.147,48.5704,272.35,97.0,100.0,9.05,RU,1644453583,Aleksandrov Gay,30.56000000000008
muli,2.9167,73.5667,300.34,76.0,39.0,3.95,MV,1644453542,Muli,80.942
tautira,-17.7333,-149.15,303.16,77.0,21.0,7.18,PF,1644453583,Tautira,86.01800000000009
bengkulu,-3.8004,102.2655,297.96,67.0,100.0,1.62,ID,1644453552,Bengkulu,76.658
tarakan,3.3,117.6333,297.87,94.0,75.0,0.51,ID,1644453584,Tarakan,76.49600000000005
rosarito,32.3333,-117.0333,301.39,30.0,0.0,2.61,MX,1644453584,Rosarito,82.83200000000002
sandwick,60,-1.25,275.05,93.0,100.0,17.49,GB,1644453295,Sandwick,35.42000000000006
kafanchan,9.5833,8.3,294.17,11.0,80.0,3.69,NG,1644453585,Kafanchan,69.83600000000007
vidisha,23.5333,77.8167,286.78,96.0,7.0,3.37,IN,1644453585,Vidisha,56.53399999999999
labuhan,-6.8844,112.2051,299.68,80.0,100.0,3.67,ID,1644453586,Labuhan,79.75400000000005
santo tomas,14.1079,121.1414,300.13,65.0,72.0,4.3,PH,1644453586,Santo Tomas,80.56400000000004
grand gaube,-20.0064,57.6608,296.69,75.0,99.0,1.34,MU,1644453586,Grand Gaube,74.37200000000004
oranjemund,-28.55,16.4333,290.74,89.0,1.0,3.47,NA,1644453586,Oranjemund,63.662000000000056
east london,-33.0153,27.9116,293.12,77.0,0.0,2.54,ZA,1644453587,East London,67.94600000000005
ayan,56.45,138.1667,263.7,93.0,100.0,4.07,RU,1644453587,Ayan,14.99000000000002
sola,-13.8833,167.55,301.02,79.0,100.0,11.56,VU,1644453587,Sola,82.16600000000001
fairbanks,64.8378,-147.7164,253.87,76.0,100.0,0.0,US,1644453588,Fairbanks,-2.703999999999951
grindavik,63.8424,-22.4338,268.41,68.0,0.0,3.09,IS,1644453588,Grindavik,23.468000000000085
patacamaya,-17.2333,-67.9167,280.88,87.0,93.0,2.94,BO,1644453588,Patacamaya,45.91400000000003
el paraiso,13.8667,-86.55,292.65,68.0,21.0,1.84,HN,1644453589,El Paraíso,67.1
poya,-21.35,165.15,300.44,90.0,100.0,5.92,NC,1644453589,Poya,81.12200000000004
atuona,-9.8,-139.0333,299.1,75.0,9.0,7.52,PF,1644453589,Atuona,78.71000000000008
port lincoln,-34.7333,135.8667,293.78,52.0,46.0,4.12,AU,1644453370,Port Lincoln,69.13399999999999
puurmani,58.5738,26.2878,275.27,87.0,92.0,5.3,EE,1644453590,Puurmani,35.81600000000001
ahuimanu,21.4447,-157.8378,300.29,64.0,0.0,6.17,US,1644453590,‘Āhuimanu,80.85200000000007
neryungri,56.6709,124.6491,241.11,100.0,99.0,1.09,RU,1644453591,Neryungri,-25.671999999999933
charters towers,-20.1,146.2667,302.58,49.0,18.0,0.92,AU,1644453591,Charters Towers,84.97400000000002
nome,64.5011,-165.4064,249.19,70.0,20.0,3.09,US,1644453591,Nome,-11.127999999999965
kendallville,41.4414,-85.265,275.65,93.0,100.0,6.69,US,1644453592,Kendallville,36.5
katsuura,35.1333,140.3,277.7,84.0,100.0,8.46,JP,1644453592,Katsuura,40.19000000000002
shelburne,44.0787,-80.2041,275.4,88.0,100.0,6.04,CA,1644453592,Shelburne,36.05
moffat,55.3323,-3.4454,276.46,87.0,100.0,5.63,GB,1644453593,Moffat,37.958000000000006
manassas,38.751,-77.4753,283.28,53.0,0.0,2.57,US,1644453074,Manassas,50.233999999999995
basoko,1.2391,23.616,295.32,67.0,92.0,0.4,CD,1644453593,Basoko,71.90600000000003
dolinsk,47.35,142.8,259.07,82.0,31.0,2.01,RU,1644453593,Dolinsk,6.656000000000027
le moule,16.3332,-61.3473,298.25,100.0,17.0,2.24,GP,1644453594,Le Moule,77.18000000000004
gamba,-2.65,10,298.33,91.0,93.0,1.8,GA,1644453594,Gamba,77.32400000000001
tura,25.5198,90.2201,287.53,66.0,93.0,0.36,IN,1644453594,Tura,57.88399999999999
gorkovskiy,45.6542,41.199,273.31,84.0,11.0,4.4,RU,1644453595,Gorkovskiy,32.288000000000046
tiksi,71.6872,128.8694,248.16,93.0,100.0,5.69,RU,1644453595,Tiksi,-12.981999999999964
saldanha,-33.0117,17.9442,290.18,92.0,25.0,1.17,ZA,1644453595,Saldanha,62.65400000000005
asau,46.4333,26.4,272.66,89.0,28.0,3.09,RO,1644453596,Asău,31.118000000000087
salalah,17.0151,54.0924,293.2,21.0,0.0,3.6,OM,1644453596,Salalah,68.09000000000002
prince rupert,54.3161,-130.3201,281.2,93.0,100.0,6.17,CA,1644453596,Prince Rupert,46.49000000000002
san isidro,-12.1167,-77.05,295.1,63.0,0.0,2.06,PE,1644453597,San Isidro,71.51000000000008
berlevag,70.8578,29.0864,269.43,83.0,37.0,10.96,NO,1644453597,Berlevåg,25.304000000000052
san cristobal,7.7669,-72.225,296.25,91.0,92.0,0.72,VE,1644453597,San Cristobal,73.58000000000004
dunedin,-45.8742,170.5036,291.15,90.0,88.0,2.61,NZ,1644453598,Dunedin,64.4
novo aripuana,-5.1206,-60.3797,296.09,98.0,98.0,0.3,BR,1644453598,Novo Aripuanã,73.292
billings,45.7833,-108.5007,285.02,40.0,40.0,6.17,US,1644453598,Billings Metropolitan Area,53.36600000000001
tiznit,29.5833,-9.5,288.65,29.0,15.0,3.21,MA,1644453599,Tiznit Province,59.9
mitsamiouli,-11.3847,43.2844,300.49,75.0,75.0,4.81,KM,1644453599,Mitsamiouli,81.21200000000006
kargopol,61.5071,38.9456,268.65,95.0,100.0,2.7,RU,1644453599,Kargopol',23.9
sindal,57.4712,10.2031,277.0,76.0,100.0,8.43,DK,1644453600,Sindal,38.93000000000004
bandarbeyla,9.4942,50.8122,295.91,69.0,100.0,6.58,SO,1644453601,Bandarbeyla,72.96800000000009
ferme-neuve,46.7001,-75.4493,271.03,94.0,100.0,3.35,CA,1644453601,Ferme-Neuve,28.18399999999999
pevek,69.7008,170.3133,237.86,99.0,100.0,2.35,RU,1644453602,Pevek,-31.521999999999935
auki,-8.7676,160.7034,300.99,84.0,99.0,4.72,SB,1644453321,Auki,82.11200000000005
pemangkat,1.1667,108.9667,296.75,93.0,100.0,1.13,ID,1644453602,Pemangkat,74.48000000000005
kailua,21.4022,-157.7394,300.45,66.0,0.0,4.63,US,1644453481,Kailua,81.14000000000001
kibiti,-7.7218,38.9375,295.47,98.0,100.0,1.16,TZ,1644453603,Kibiti,72.17600000000009
perth,-31.9333,115.8333,299.27,48.0,0.0,7.72,AU,1644453407,Perth,79.016
inhambane,-23.865,35.3833,296.93,83.0,0.0,1.53,MZ,1644453603,Inhambane,74.80400000000006
birao,10.2849,22.7882,292.57,17.0,19.0,2.07,CF,1644453603,Birao,66.95600000000003
atherton,53.5237,-2.4935,279.2,80.0,100.0,1.79,GB,1644453604,Atherton,42.89000000000002
ponta do sol,32.6667,-17.1,292.66,30.0,100.0,2.14,PT,1644453604,Ponta do Sol,67.11800000000008
waipawa,-41.4122,175.5153,295.07,66.0,100.0,2.5,NZ,1644453604,Waipawa,71.45600000000003
miramar,25.9873,-80.2323,291.51,89.0,100.0,2.57,US,1644453534,Miramar,65.04800000000003
atbasar,51.8,68.3333,250.73,100.0,92.0,3.01,KZ,1644453605,Atbasar,-8.35599999999998
umm lajj,25.0213,37.2685,293.6,57.0,0.0,5.72,SA,1644453605,Umluj,68.81000000000009
flin flon,54.7682,-101.865,259.06,78.0,100.0,1.54,CA,1644453606,Flin Flon,6.638000000000044
oxelosund,58.6706,17.1015,276.11,75.0,0.0,9.26,SE,1644453606,Oxelösund,37.32800000000007
riyadh,24.6877,46.7219,286.23,31.0,0.0,4.31,SA,1644453507,Riyadh,55.544000000000075
abha,18.2164,42.5053,287.05,41.0,0.0,5.14,SA,1644453606,Abhā,57.02000000000006
heihe,50.2441,127.4902,255.59,92.0,96.0,3.62,CN,1644453607,Heihe,0.39200000000004565
iqaluit,63.7506,-68.5145,241.31,74.0,75.0,5.14,CA,1644453607,Iqaluit,-25.311999999999955
kumluca,36.3703,30.2869,280.65,52.0,4.0,4.51,TR,1644453607,Kumluca,45.5
tamworth,52.634,-1.6959,279.62,83.0,100.0,1.34,GB,1644453608,Tamworth,43.64600000000005
kavaratti,10.5669,72.642,299.8,72.0,100.0,6.74,IN,1644453608,Kavaratti,79.97000000000006
greencastle,39.6445,-86.8647,278.65,80.0,100.0,5.14,US,1644453608,Greencastle,41.9
portland,45.5234,-122.6762,288.62,71.0,75.0,1.54,US,1644453493,Portland,59.846000000000046
polis,35.0367,32.4264,281.05,75.0,77.0,2.15,CY,1644453609,Polis,46.22000000000006
kawalu,-7.3817,108.2082,295.87,95.0,100.0,0.76,ID,1644453609,Kawalu,72.89600000000004
puerto quijarro,-17.7833,-57.7667,296.29,57.0,100.0,1.26,BO,1644453609,Puerto Quijarro,73.65200000000007
massaguet,12.4755,15.4365,293.17,12.0,0.0,4.33,TD,1644453610,Massaguet,68.03600000000007
coahuayana,18.7333,-103.6833,302.86,67.0,0.0,1.42,MX,1644453610,Coahuayana Viejo,85.47800000000007
torbay,47.6666,-52.7314,274.58,91.0,75.0,6.17,CA,1644453610,Torbay,34.57400000000001
murgab,37.4966,61.9714,276.08,93.0,0.0,1.03,TM,1644453611,Murgab,37.274000000000015
lethem,3.3803,-59.7968,303.12,42.0,95.0,4.85,GY,1644453611,Lethem,85.94600000000005
la maddalena,41.2142,9.4083,274.18,67.0,0.0,5.24,IT,1644453612,La Maddalena,33.854000000000056
hanna,51.6334,-111.9018,280.16,67.0,100.0,2.68,CA,1644453612,Hanna,44.61800000000009
bajil,15.0584,43.2851,296.78,76.0,0.0,1.46,YE,1644453612,Bajil,74.53399999999999
skjervoy,70.0311,20.9714,271.79,60.0,95.0,5.88,NO,1644453613,Skjervøy,29.552000000000078
vao,-22.6667,167.4833,300.58,85.0,100.0,14.65,NC,1644453613,Vao,81.37400000000001
ambovombe,-25.1667,46.0833,296.8,89.0,71.0,2.82,MG,1644453614,Ambovombe,74.57000000000006
ostrovnoy,68.0531,39.5131,268.55,87.0,100.0,9.23,RU,1644453615,Ostrovnoy,23.720000000000063
eyl,7.9803,49.8164,295.19,73.0,2.0,6.65,SO,1644453615,Eyl,71.67200000000004
sokolo,14.7328,-6.1219,296.12,10.0,2.0,6.08,ML,1644453616,Sokolo,73.34600000000005
souillac,-20.5167,57.5167,296.68,77.0,80.0,1.64,MU,1644453616,Souillac,74.35400000000006
nurota,40.5614,65.6886,275.2,41.0,0.0,2.63,UZ,1644453616,Nurota,35.69000000000002
aklavik,68.2191,-135.0107,244.61,69.0,75.0,4.63,CA,1644453617,Aklavik,-19.371999999999936
ebolowa,2.9,11.15,293.54,99.0,51.0,1.06,CM,1644453617,Ébolowa,68.70200000000008
cerrito,6.8432,-72.694,282.81,93.0,100.0,1.92,CO,1644453618,Cerrito,49.38800000000005
buhl,48.7,8.15,278.16,86.0,0.0,0.0,DE,1644453618,Bühl,41.018000000000086
tygda,53.1167,126.3333,256.36,83.0,87.0,1.76,RU,1644453618,Tygda,1.7780000000000662
igrim,63.1906,64.4162,258.8,94.0,64.0,4.94,RU,1644453619,Igrim,6.170000000000062
margate,51.3813,1.3862,282.57,87.0,100.0,0.89,GB,1644453619,Margate,48.95600000000003
ola,59.5833,151.2833,256.73,74.0,97.0,2.16,RU,1644453619,Ola,2.4440000000000737
sao felix do xingu,-6.6447,-51.995,295.55,98.0,100.0,0.55,BR,1644453620,São Félix do Xingu,72.32000000000006
leshukonskoye,64.8989,45.7622,265.16,93.0,100.0,4.11,RU,1644453620,Leshukonskoye,17.618000000000087
juneau,58.3019,-134.4197,282.15,90.0,75.0,3.6,US,1644453360,Juneau,48.2
scituate,42.1959,-70.7259,276.65,74.0,0.0,3.09,US,1644453621,Scituate,38.3
rorvik,64.8621,11.2373,277.36,74.0,66.0,16.39,NO,1644453621,Rørvik,39.57800000000007
tongchuan,35.0806,109.0897,273.49,65.0,100.0,1.17,CN,1644453621,Tongchuanshi,32.61200000000006
veere,51.5483,3.6667,282.62,95.0,100.0,5.14,NL,1644453622,Veere,49.04600000000005
menongue,-14.6585,17.691,287.83,97.0,100.0,1.76,AO,1644453622,Menongue,58.424000000000014
tolaga bay,-38.3667,178.3,298.63,75.0,68.0,5.26,NZ,1644453622,Tolaga Bay,77.86400000000003
rapid valley,44.0625,-103.1463,276.51,93.0,100.0,4.12,US,1644453623,Rapid Valley,38.04800000000002
vila velha,-20.3297,-40.2925,297.12,86.0,75.0,3.09,BR,1644453389,Vila Velha,75.14600000000004
dingle,10.9995,122.6711,300.31,71.0,13.0,6.58,PH,1644453623,Dingle,80.88800000000005
kloulklubed,7.0419,134.2556,301.43,80.0,100.0,5.29,PW,1644453372,Kloulklubed,82.90400000000005
isangel,-19.55,169.2667,298.63,95.0,100.0,17.88,VU,1644453467,Isangel,77.86400000000003
charagua,-19.8,-63.2167,294.52,43.0,12.0,1.34,BO,1644453624,Charagua,70.46600000000001
kyren,51.6828,102.1408,249.27,96.0,96.0,0.48,RU,1644453624,Kyren,-10.983999999999938
conceicao da barra,-18.5933,-39.7322,297.73,91.0,12.0,2.45,BR,1644453625,Conceição da Barra,76.24400000000007
barrow,71.2906,-156.7887,243.16,69.0,100.0,5.14,US,1644453625,Barrow,-21.98199999999997
vanimo,-2.6741,141.3028,303.06,65.0,40.0,0.54,PG,1644453610,Vanimo,85.83800000000005
urumqi,43.801,87.6005,260.68,79.0,100.0,2.0,CN,1644453289,Ürümqi,9.554000000000052
mangan,27.5167,88.5333,281.75,84.0,100.0,2.29,IN,1644453625,Mangan,47.48000000000004
namibe,-15.1961,12.1522,295.42,84.0,98.0,3.22,AO,1644453391,Mossamedes,72.08600000000007
acajutla,13.5928,-89.8275,300.26,63.0,79.0,3.03,SV,1644453626,Acajutla,80.79800000000003
warrnambool,-38.3833,142.4833,294.16,58.0,70.0,6.4,AU,1644453626,Warrnambool,69.81800000000008
quchan,37.106,58.5095,274.33,55.0,6.0,1.5,IR,1644453627,Qūchān,34.12400000000001
moerai,-22.4333,-151.3333,299.82,78.0,100.0,5.28,PF,1644453627,Moerai,80.00600000000003
pangody,65.85,74.4859,252.68,92.0,24.0,5.49,RU,1644453627,Pangody,-4.845999999999947
nova aurora,-22.8667,-52.5667,295.46,74.0,34.0,3.9,BR,1644453628,Nova Aurora,72.158
omaruru,-21.4333,15.9333,293.48,80.0,92.0,2.72,NA,1644453628,Omaruru,68.59400000000008
necocli,8.4234,-76.786,298.42,91.0,100.0,3.19,CO,1644453628,Necoclí,77.48600000000008
sept-iles,50.2001,-66.3821,271.51,92.0,100.0,4.12,CA,1644453422,Sept-Îles,29.048000000000023
saint george,37.1041,-113.5841,292.48,21.0,0.0,10.8,US,1644453629,Saint George,66.79400000000007
tornio,65.8481,24.1466,264.16,97.0,87.0,3.38,FI,1644453629,Tornio,15.818000000000087
norman wells,65.282,-126.8329,251.17,64.0,100.0,5.14,CA,1644453401,Norman Wells,-7.563999999999979
westport,41.1415,-73.3579,277.58,85.0,0.0,2.06,US,1644453630,Westport,39.97400000000001
henties bay,-22.116,14.2845,293.07,85.0,0.0,2.57,NA,1644453630,Henties Bay,67.85600000000002
peniche,39.3558,-9.3811,287.94,91.0,33.0,2.76,PT,1644453630,Peniche,58.622000000000035
ustka,54.5805,16.8619,277.33,92.0,100.0,8.17,PL,1644453631,Ustka,39.524000000000015
lardos,36.0942,28.0157,283.12,57.0,0.0,10.42,GR,1644453631,Lárdos,49.94600000000005
laguna,38.421,-121.4238,298.06,46.0,0.0,2.57,US,1644453547,Laguna,76.83800000000005
sabha,27.0377,14.4283,280.84,61.0,0.0,5.44,LY,1644453631,Sabha,45.842
kaura namoda,12.5898,6.5779,293.51,10.0,1.0,4.77,NG,1644453632,Kaura Namoda,68.64800000000002
ellisras,-23.6649,27.7443,293.93,61.0,24.0,2.12,ZA,1644453632,Ellisras,69.40400000000005
adelaide,-34.9333,138.6,297.82,48.0,40.0,4.63,AU,1644453632,Adelaide,76.40600000000003
bayan,46.0833,127.4,259.49,96.0,100.0,0.69,CN,1644453633,Bayan,7.412000000000056
wajid,3.8093,43.2471,295.56,55.0,100.0,9.18,SO,1644453633,Wajid,72.33800000000005
huarmey,-10.0681,-78.1522,295.19,78.0,100.0,3.13,PE,1644453633,Huarmey,71.67200000000004
tuatapere,-46.1333,167.6833,297.49,48.0,16.0,0.86,NZ,1644453634,Tuatapere,75.81200000000005
kupang,-10.1667,123.5833,301.06,79.0,91.0,2.57,ID,1644453634,Kupang,82.23800000000004
junction city,39.0286,-96.8314,285.04,32.0,0.0,3.09,US,1644453398,Junction City,53.40200000000008
nanyang,32.9947,112.5328,276.95,67.0,1.0,2.12,CN,1644453634,Nanyang,38.84000000000002
havoysund,70.9963,24.6622,268.64,81.0,100.0,4.76,NO,1644453635,Havøysund,23.882000000000016
lingao,19.9103,109.6859,293.54,93.0,99.0,4.72,CN,1644453635,Lingao,68.70200000000008
ishigaki,24.3448,124.1572,294.22,88.0,20.0,1.54,JP,1644453635,Ishigaki,69.92600000000009
halifax,44.6453,-63.5724,275.09,85.0,74.0,3.58,CA,1644453538,Halifax,35.492
thaton,16.9206,97.3714,292.53,44.0,0.0,1.69,MM,1644453636,Thaton,66.88399999999999
severnoye,56.3491,78.3619,246.67,98.0,6.0,2.69,RU,1644453636,Severnoye,-15.66399999999998
vanavara,60.34,102.2797,239.83,100.0,49.0,1.44,RU,1644453636,Vanavara,-27.975999999999928
chhatapur,26.2167,87.0167,288.34,75.0,99.0,2.88,IN,1644453637,Chhātāpur,59.342
kirakira,-10.4544,161.9205,301.57,79.0,100.0,4.82,SB,1644453637,Kirakira,83.15600000000003
hambantota,6.1241,81.1185,296.34,100.0,20.0,2.06,LK,1644453637,Hambantota,73.74199999999999
nahrin,36.0649,69.1334,275.29,46.0,100.0,2.92,AF,1644453638,Nahrin,35.852000000000075
the valley,18.217,-63.0578,299.07,65.0,0.0,9.15,AI,1644453638,The Valley,78.65600000000003
luanda,-8.8368,13.2343,298.15,83.0,100.0,1.54,AO,1644453409,Luanda,77.0
poum,-20.2333,164.0167,300.56,86.0,100.0,13.04,NC,1644453638,Poum,81.33800000000005
montepuez,-13.1256,38.9997,293.51,99.0,100.0,1.52,MZ,1644453639,Montepuez,68.64800000000002
roald,62.5833,6.1333,275.88,93.0,75.0,9.77,NO,1644453639,Roald,36.91400000000003
chabahar,25.2919,60.643,293.17,55.0,0.0,1.28,IR,1644453639,Chabahar,68.03600000000007
half moon bay,37.4636,-122.4286,296.83,30.0,75.0,1.54,US,1644453640,Half Moon Bay,74.62400000000001
carutapera,-1.195,-46.02,297.45,91.0,100.0,2.29,BR,1644453625,Carutapera,75.74000000000002
geraldton,-28.7667,114.6,295.38,56.0,0.0,4.63,AU,1644453640,Geraldton,72.01400000000004
severodvinsk,64.5635,39.8302,268.21,97.0,55.0,3.68,RU,1644453640,Severodvinsk,23.108000000000004
cuamba,-14.8031,36.5372,293.78,99.0,100.0,0.89,MZ,1644453641,Cuamba,69.13399999999999
cockburn town,21.4612,-71.1419,298.69,74.0,0.0,9.07,TC,1644453641,Cockburn Town,77.97200000000004
sao joao da barra,-21.6403,-41.0511,293.75,95.0,100.0,4.27,BR,1644453641,São João da Barra,69.08000000000004
zhanakorgan,43.9098,67.2495,272.46,81.0,16.0,3.99,KZ,1644453642,Zhanakorgan,30.758000000000003
santa maria da vitoria,-13.3947,-44.1886,295.29,90.0,100.0,0.16,BR,1644453642,Santa Maria da Vitória,71.85200000000007
aksha,50.2814,113.2867,256.49,93.0,100.0,0.75,RU,1644453642,Aksha,2.0120000000000573
gao,16.6362,1.637,293.5,9.0,0.0,5.06,ML,1644453533,Gao,68.63000000000004
myitkyina,25.3833,97.4,285.18,69.0,0.0,0.98,MM,1644453351,Myitkyina,53.65400000000005
sadabad,27.45,78.05,281.92,91.0,0.0,1.35,IN,1644453643,Sadābād,47.78600000000007
thompson,55.7435,-97.8558,255.24,60.0,100.0,2.57,CA,1644453643,Thompson,-0.2379999999999427
uray,60.1247,64.7758,258.29,95.0,72.0,4.28,RU,1644453644,Uray,5.252000000000077
ballina,-28.8667,153.5667,300.25,63.0,0.0,3.6,AU,1644453644,Ballina,80.78000000000004
nizhniy kuranakh,58.8353,125.4869,244.19,98.0,100.0,0.65,RU,1644453644,Nizhniy Kuranakh,-20.127999999999965
mercedes,-34.6515,-59.4307,296.39,66.0,0.0,4.88,AR,1644453645,Mercedes,73.83200000000002
ust-omchug,61.15,149.6333,248.25,87.0,100.0,1.52,RU,1644453645,Ust'-Omchug,-12.819999999999958
uruguaiana,-29.7547,-57.0883,300.11,44.0,0.0,4.12,BR,1644453645,Uruguaiana,80.52800000000006
uvalde,29.3669,-99.767,292.67,17.0,0.0,2.06,US,1644453646,Uvalde,67.13600000000007
lakes entrance,-37.8811,147.981,296.02,68.0,100.0,3.79,AU,1644453571,Lakes Entrance,73.16600000000001
paris,48.8534,2.3488,281.01,90.0,100.0,2.06,FR,1644453631,Paris,46.148000000000025
baghmara,23.795,86.2085,292.34,73.0,98.0,0.98,IN,1644453646,Baghmara,66.542
kontagora,10.3999,5.4695,296.54,12.0,3.0,2.17,NG,1644453647,Kontagora,74.10200000000007
nemuro,43.3236,145.575,265.39,71.0,7.0,2.24,JP,1644453647,Nemuro,18.032000000000018
srednekolymsk,67.45,153.6833,235.59,97.0,66.0,3.1,RU,1644453647,Srednekolymsk,-35.60799999999995
griffith,41.5284,-87.4237,276.51,77.0,100.0,8.23,US,1644453615,Griffith,38.04800000000002
ngama,11.7833,17.1667,291.07,13.0,0.0,4.06,TD,1644453648,Ngama,64.25600000000003
taybad,34.74,60.7756,280.38,44.0,13.0,3.01,IR,1644453648,Tāybād,45.01400000000003
rio grande,-32.035,-52.0986,294.23,66.0,0.0,6.18,BR,1644453648,Rio Grande,69.94400000000007
ilorin,8.5,4.55,299.0,19.0,5.0,2.22,NG,1644453649,Ilorin,78.53000000000004
ico,-6.4011,-38.8622,299.38,65.0,100.0,2.03,BR,1644453649,Icó,79.21400000000003
store heddinge,55.3097,12.3889,276.41,88.0,100.0,6.93,DK,1644453649,Store Heddinge,37.86800000000009
bahia honda,22.9036,-83.1592,293.47,74.0,1.0,5.6,CU,1644453650,Bahía Honda,68.57600000000009
grande prairie,55.1667,-118.8027,282.25,61.0,75.0,15.43,CA,1644453467,Grande Prairie,48.38000000000004
hilton head island,32.2163,-80.7526,283.21,79.0,0.0,0.0,US,1644453201,Hilton Head,50.108000000000004
vila franca do campo,37.7167,-25.4333,287.7,79.0,28.0,4.03,PT,1644453650,Vila Franca do Campo,58.19000000000002
veraval,20.9,70.3667,292.82,47.0,63.0,6.7,IN,1644453651,Verāval,67.40600000000003
san benito,36.6166,-121.0844,289.74,54.0,100.0,1.71,US,1644453651,San Benito,61.86200000000006
puerto baquerizo moreno,-0.9,-89.6,296.51,81.0,100.0,3.69,EC,1644453651,Puerto Baquerizo Moreno,74.04800000000003
chapais,49.7834,-74.8492,268.03,96.0,100.0,4.75,CA,1644453652,Chapais,22.783999999999992
bambanglipuro,-7.95,110.2833,298.71,85.0,100.0,4.65,ID,1644453611,Bambanglipuro,78.00800000000001
xuddur,4.1213,43.8894,292.72,70.0,100.0,7.97,SO,1644453652,Oddur,67.22600000000008
dzaoudzi,-12.7887,45.2699,299.09,89.0,100.0,3.09,YT,1644453652,Dzaoudzi,78.692
oistins,13.0667,-59.5333,298.2,73.0,75.0,7.72,BB,1644453425,Oistins,77.09000000000002
mattru,7.6244,-11.8332,296.22,95.0,0.0,0.25,SL,1644453653,Mattru,73.5260000000001
ahipara,-35.1667,173.1667,299.75,67.0,100.0,5.63,NZ,1644453653,Ahipara,79.88000000000004
gizo,-8.103,156.8419,301.49,76.0,77.0,4.84,SB,1644453654,Gizo Government Station,83.01200000000006
tahta,26.7693,31.5021,283.25,55.0,0.0,5.48,EG,1644453654,Ţahţā,50.18000000000004
haukipudas,65.1765,25.3523,268.79,93.0,39.0,4.68,FI,1644453654,Haukipudas,24.15200000000008
riohacha,11.5444,-72.9072,299.19,71.0,17.0,5.62,CO,1644453654,Riohacha,78.87200000000004
pathein,16.7833,94.7333,290.33,51.0,6.0,2.36,MM,1644453655,Pathein,62.924000000000014
mount gambier,-37.8333,140.7667,294.1,49.0,75.0,6.69,AU,1644453655,Mount Gambier,69.71000000000008
meadow lake,34.8014,-106.5436,284.86,29.0,99.0,2.62,US,1644453655,Meadow Lake,53.07800000000007
vostok,46.4856,135.8833,263.32,75.0,31.0,0.48,RU,1644453656,Vostok,14.30600000000003
sorland,67.667,12.6934,277.67,77.0,100.0,13.86,NO,1644453656,Sørland,40.13600000000007
verkhnyaya inta,65.9811,60.3094,263.13,69.0,5.0,8.74,RU,1644453656,Verkhnyaya Inta,13.964000000000034
itarema,-2.9248,-39.9167,299.02,75.0,12.0,4.04,BR,1644453657,Itarema,78.566
iguai,-14.7564,-40.0892,294.42,96.0,10.0,1.34,BR,1644453657,Iguaí,70.28600000000007
beyneu,45.3167,55.2,272.99,81.0,100.0,9.16,KZ,1644453657,Beyneu,31.712000000000057
kem,64.9555,34.5793,266.92,94.0,99.0,4.21,RU,1644453658,Kem',20.78600000000007
kaihua,23.3687,104.28,284.23,84.0,65.0,4.85,CN,1644453658,Kaihua,51.944000000000074
yarmouth,41.7057,-70.2286,275.45,82.0,0.0,3.09,US,1644453658,Yarmouth,36.14000000000002
nayoro,44.3506,142.4578,267.16,89.0,53.0,0.81,JP,1644453659,Nayoro,21.218000000000085
gbadolite,4.2833,21.0167,295.85,29.0,100.0,0.13,CD,1644453659,Gbadolite,72.86000000000008
avera,33.194,-82.5271,284.1,52.0,0.0,2.95,US,1644453659,Avera,51.71000000000008
burnie,-41.0667,145.9167,293.67,44.0,2.0,4.72,AU,1644453660,Burnie,68.93600000000006
samarai,-10.6167,150.6667,301.49,68.0,87.0,5.15,PG,1644453660,Samarai,83.01200000000006
farafangana,-22.8167,47.8333,297.48,91.0,16.0,2.96,MG,1644453660,Farafangana,75.79400000000007
tommot,58.9564,126.2925,246.37,97.0,100.0,0.61,RU,1644453661,Tommot,-16.20399999999995
huaral,-11.495,-77.2078,294.29,79.0,90.0,1.79,PE,1644453661,Huaral,70.05200000000008
maua,-23.6678,-46.4614,293.76,86.0,95.0,2.75,BR,1644453661,Mauá,69.09800000000003
north platte,41.1239,-100.7654,282.09,63.0,100.0,8.75,US,1644453662,North Platte,48.092
binzhou,37.3667,118.0167,276.53,69.0,0.0,3.65,CN,1644453662,Binzhou,38.08399999999999
lugovoy,42.9472,72.7644,267.75,70.0,5.0,2.82,KZ,1644453662,Lugovoy,22.28000000000004
pafos,34.7667,32.4167,281.03,76.0,20.0,3.09,CY,1644453663,Paphos,46.18399999999999
bosaso,11.2842,49.1816,294.8,66.0,75.0,1.55,SO,1644453663,Bosaso,70.97000000000006
sakrand,26.1384,68.2736,286.12,76.0,0.0,1.03,PK,1644453663,Sakrand,55.346000000000046
ambon,-3.6954,128.1814,301.23,78.0,40.0,2.57,ID,1644453625,Ambon City,82.54400000000007
bartica,6.4,-58.6167,297.33,99.0,70.0,1.19,GY,1644453664,Bartica,75.52400000000002
naron,43.5167,-8.1528,284.83,83.0,81.0,3.0,ES,1644453664,Narón,53.024000000000015
caluquembe,-13.7833,14.6833,286.6,95.0,100.0,0.97,AO,1644453664,Caluquembe,56.21000000000008
madaoua,14.073,5.96,292.61,10.0,0.0,4.91,NE,1644453665,Madaoua,67.02800000000006
seoul,37.5683,126.9778,271.93,69.0,0.0,1.54,KR,1644453552,Seoul,29.804000000000052
sobolevo,54.4299,31.8996,272.54,98.0,100.0,6.2,RU,1644453665,Sobolevo,30.90200000000008
mehamn,71.0357,27.8492,265.53,88.0,44.0,4.61,NO,1644453666,Mehamn,18.283999999999992
novyy urengoy,66.0833,76.6333,252.05,89.0,23.0,4.96,RU,1644453666,Novy Urengoy,-5.97999999999994
bodden town,19.2833,-81.25,299.26,81.0,20.0,1.54,KY,1644453582,Bodden Town,78.99800000000002
mbandaka,0.0487,18.2603,299.64,38.0,100.0,1.5,CD,1644453666,Mbandaka,79.68200000000002
sjoholt,62.4837,6.8106,275.75,93.0,100.0,3.5,NO,1644453667,Sjøholt,36.68000000000004
shingu,33.7333,135.9833,283.7,83.0,100.0,2.64,JP,1644453612,Shingū,50.99000000000002
obihiro,42.9172,143.2044,261.82,79.0,4.0,0.56,JP,1644453667,Obihiro,11.60600000000003
okhotsk,59.3833,143.3,261.16,77.0,100.0,4.44,RU,1644453668,Okhotsk,10.418000000000085
bichura,50.5881,107.6022,254.48,96.0,100.0,1.27,RU,1644453668,Bichura,-1.6059999999999803
beringovskiy,63.05,179.3167,246.28,86.0,2.0,4.7,RU,1644453462,Beringovskiy,-16.365999999999957
porto murtinho,-21.6989,-57.8825,297.74,31.0,3.0,1.56,BR,1644453668,Porto Murtinho,76.26200000000006
ushibuka,32.1906,130.0228,283.11,68.0,68.0,3.21,JP,1644453669,Ushibukamachi,49.92800000000007
selcuk,37.9514,27.3685,282.05,88.0,6.0,3.57,TR,1644453669,Selçuk,48.02000000000006
tres passos,-27.4556,-53.9319,292.85,40.0,0.0,1.97,BR,1644453669,Três Passos,67.46000000000008
rio gallegos,-51.6226,-69.2181,287.18,28.0,0.0,5.14,AR,1644453670,Río Gallegos,57.254000000000055
strelka,58.0728,93.0344,241.4,100.0,36.0,0.48,RU,1644453670,Strelka,-25.149999999999956
manaure,11.7751,-72.4445,299.34,70.0,34.0,8.21,CO,1644453671,Manaure,79.142
talakan,50.3167,130.3667,260.59,91.0,100.0,1.58,RU,1644453671,Talakan,9.391999999999996
bonavista,48.6499,-53.1147,274.88,89.0,100.0,8.43,CA,1644453671,Bonavista,35.11400000000003
omboue,-1.5746,9.2618,299.13,89.0,100.0,2.0,GA,1644453672,Omboué,78.76400000000004
harper,4.375,-7.7169,299.12,87.0,29.0,3.36,LR,1644453672,Harper,78.74600000000005
leningradskiy,69.3833,178.4167,239.65,97.0,86.0,2.8,RU,1644453672,Leningradskiy,-28.299999999999955
lagoa,39.05,-27.9833,287.96,68.0,1.0,7.08,PT,1644453673,Lagoa,58.658
la crosse,43.8014,-91.2396,274.56,78.0,100.0,7.72,US,1644453673,La Crosse,34.538000000000046
yuma,32.7253,-114.6244,300.99,8.0,0.0,5.14,US,1644453566,Yuma,82.11200000000005
husavik,66.0449,-17.3389,266.1,68.0,57.0,5.0,IS,1644453674,Husavik,19.31000000000008
genhe,50.7833,121.5167,253.6,94.0,99.0,0.97,CN,1644453674,Genhe,-3.1899999999999693
omsukchan,62.5333,155.8,248.98,75.0,68.0,1.51,RU,1644453674,Omsukchan,-11.505999999999979
lukovetskiy,64.2956,41.9211,268.14,95.0,100.0,3.11,RU,1644453675,Lukovetskiy,22.982000000000017
valparaiso,-33.0393,-71.6273,292.3,74.0,100.0,3.09,CL,1644453598,Valparaíso,66.47000000000006
hualmay,-11.0964,-77.6139,294.46,81.0,47.0,3.56,PE,1644453676,Hualmay,70.358
adwa,14.1646,38.8955,289.1,61.0,5.0,0.73,ET,1644453676,Adwa,60.71000000000008
muravlenko,63.7898,74.523,249.98,92.0,12.0,5.06,RU,1644453676,Muravlenko,-9.705999999999975
hay river,60.8156,-115.7999,255.14,78.0,100.0,6.17,CA,1644453677,Hay River,-0.41799999999998505
sao gabriel da cachoeira,-0.1303,-67.0892,295.22,96.0,100.0,1.14,BR,1644453677,São Gabriel da Cachoeira,71.72600000000008
byron bay,-28.65,153.6167,300.21,57.0,0.0,3.52,AU,1644453181,Byron Bay,80.708
solton,52.8429,86.4787,246.84,98.0,60.0,1.44,RU,1644453678,Solton,-15.357999999999954
micoud,13.8167,-60.9,299.11,69.0,75.0,9.26,LC,1644453678,Micoud,78.72800000000007
zyryanovsk,49.7386,84.2719,252.74,100.0,100.0,0.82,KZ,1644453678,Zyryanovsk,-4.737999999999943
verkhnevilyuysk,63.4453,120.3167,234.62,100.0,82.0,0.56,RU,1644453679,Verkhnevilyuysk,-37.35399999999996
danville,36.586,-79.395,281.6,60.0,0.0,1.54,US,1644453679,Danville,47.21000000000008
kangaba,11.9333,-8.4167,296.91,15.0,1.0,2.62,ML,1644453679,Kangaba,74.76800000000009
bonthe,7.5264,-12.505,298.05,90.0,0.0,1.27,SL,1644453680,Bonthe,76.82000000000006
dwarka,22.2394,68.9678,293.76,47.0,6.0,5.65,IN,1644453680,Dwārka,69.09800000000003
san carlos de bariloche,-41.1456,-71.3082,291.01,42.0,0.0,10.29,AR,1644453680,Bariloche,64.14800000000002
arroyo,41.6096,-4.7969,282.14,52.0,0.0,1.54,ES,1644453681,Arroyo de la Encomienda,48.182000000000016
bolitoc,15.7395,119.8769,301.02,62.0,8.0,0.55,PH,1644453681,Bolitoc,82.16600000000001
cortez,37.3489,-108.5859,284.57,20.0,0.0,4.63,US,1644453681,Cortez,52.556000000000026
porto belo,-27.1578,-48.5531,298.12,80.0,54.0,3.14,BR,1644453682,Porto Belo,76.94600000000005
thanh hoa,19.8,105.7667,290.27,89.0,100.0,1.19,VN,1644453682,Thanh Hoa,62.81600000000001
fort nelson,58.8053,-122.7002,260.92,85.0,75.0,1.54,CA,1644453682,Fort Nelson,9.986000000000068
batavia,41.85,-88.3126,276.36,77.0,100.0,7.2,US,1644453683,Batavia,37.77800000000006
saint-denis,48.9167,2.3333,281.01,88.0,100.0,2.06,FR,1644453683,Arrondissement de Saint-Denis,46.148000000000025
haines junction,60.7522,-137.5108,279.12,56.0,18.0,5.66,CA,1644453683,Haines Junction,42.74600000000005
lorengau,-2.0226,147.2712,302.24,73.0,78.0,2.75,PG,1644453684,Lorengau,84.36200000000005
santa vitoria,-18.8386,-50.1214,296.2,83.0,96.0,1.17,BR,1644453684,Santa Vitória,73.49000000000002
dudestii vechi,46.05,20.4833,275.42,84.0,0.0,2.09,RO,1644453684,Dudeştii Vechi,36.08600000000007
pimentel,-6.8367,-79.9342,295.04,76.0,100.0,4.69,PE,1644453685,Pimentel,71.40200000000007
brae,60.3964,-1.353,275.1,69.0,99.0,9.36,GB,1644453685,Brae,35.51000000000008
cowra,-33.8333,148.6833,301.89,31.0,60.0,2.83,AU,1644453685,Cowra,83.73200000000001
toropets,56.4978,31.6353,272.85,97.0,100.0,4.43,RU,1644453686,Toropets,31.460000000000083
sistranda,63.7256,8.834,277.54,57.0,100.0,14.99,NO,1644453686,Sistranda,39.90200000000008
bilibino,68.0546,166.4372,238.06,100.0,80.0,0.73,RU,1644453687,Bilibino,-31.161999999999956
mahibadhoo,3.7833,72.9667,300.16,76.0,42.0,3.75,MV,1644453687,Mahibadhoo,80.61800000000008
yarada,17.65,83.2667,291.33,100.0,20.0,1.03,IN,1644453687,Yārāda,64.72400000000002
mitu,1.1983,-70.1733,294.3,98.0,100.0,0.3,CO,1644453687,Mitú,70.07000000000006
kita,13.0349,-9.4895,296.34,13.0,0.0,2.45,ML,1644453688,Kita,73.74199999999999
lyuban,52.7985,28.0048,276.62,100.0,100.0,7.31,BY,1644453688,Lyuban',38.24600000000005
abnub,27.2696,31.1511,282.51,58.0,0.0,4.93,EG,1644453689,Abnūb,48.84800000000003
guerrero negro,27.9769,-114.0611,292.27,44.0,0.0,4.13,MX,1644453689,Guerrero Negro,66.41600000000001
biak,-0.9131,122.8766,300.69,73.0,100.0,0.25,ID,1644453689,Biak,81.57200000000003
port hedland,-20.3167,118.5667,303.18,70.0,12.0,8.75,AU,1644453690,Port Hedland,86.05400000000006
gualeguay,-33.1416,-59.3097,293.71,47.0,0.0,3.93,AR,1644453690,Gualeguay,69.00800000000001
madera,37.1666,-119.8343,294.91,55.0,19.0,1.0,US,1644453690,Madera,71.16800000000009
katangli,51.7102,143.2326,264.67,91.0,100.0,4.78,RU,1644453691,Katangli,16.736000000000068
naze,28.3667,129.4833,287.66,80.0,100.0,6.48,JP,1644453691,Naze,58.11800000000009
pelym,61.0108,61.9978,261.68,94.0,100.0,4.67,RU,1644453691,Pelym,11.354000000000052
birchis,45.9667,22.1667,271.84,92.0,4.0,1.14,RO,1644453692,Birchiş,29.641999999999996
chavakachcheri,9.6579,80.1643,298.31,74.0,43.0,4.58,LK,1644453692,Chavakachcheri,77.28800000000004
aasiaat,68.7098,-52.8699,254.18,96.0,100.0,8.78,GL,1644453692,Aasiaat,-2.145999999999944
nanortalik,60.1432,-45.2371,266.48,68.0,97.0,3.52,GL,1644453693,Nanortalik,19.994000000000074
wanning,18.8003,110.3967,296.0,88.0,92.0,1.98,CN,1644453693,Wanning,73.13000000000004
tukrah,32.5341,20.5791,284.14,58.0,0.0,4.35,LY,1644453693,Tūkrah,51.78200000000002
san-pedro,4.7485,-6.6363,298.7,92.0,7.0,2.03,CI,1644453694,San-Pédro,77.99000000000002
flinders,-34.5833,150.8552,303.6,56.0,5.0,2.68,AU,1644453694,Flinders,86.81000000000009
alta floresta,-9.8756,-56.0861,294.65,98.0,100.0,1.26,BR,1644453694,Alta Floresta,70.7
oskarshamn,57.2645,16.4484,276.47,72.0,31.0,7.7,SE,1644453695,Oskarshamn,37.97600000000009
taoudenni,22.6783,-3.9836,291.2,21.0,1.0,6.19,ML,1644453695,Taoudenni,64.49000000000002
semirom,31.4167,51.5667,271.02,50.0,0.0,1.49,IR,1644453695,Semīrom,28.166000000000007
sur,22.5667,59.5289,292.55,66.0,5.0,1.16,OM,1644453696,Sur,66.92000000000006
pagudpud,18.5616,120.7868,298.13,73.0,1.0,5.29,PH,1644453696,Pagudpud,76.96400000000003
huilong,31.8111,121.655,279.84,74.0,12.0,3.1,CN,1644453696,Huilong,44.041999999999994
erenhot,43.6475,111.9767,260.11,80.0,45.0,3.53,CN,1644453697,Erenhot,8.528000000000066
camacha,33.0833,-16.3333,289.83,88.0,0.0,3.6,PT,1644453697,Camacha,62.024000000000015
grand-lahou,5.1367,-5.0242,298.62,91.0,25.0,2.92,CI,1644453697,Grand-Lahou,77.84600000000005
murovane,49.5214,22.9367,277.36,88.0,100.0,4.78,UA,1644453698,Murovane,39.57800000000007
galich,58.3797,42.3475,268.59,97.0,100.0,2.53,RU,1644453698,Galich,23.791999999999994
juan lacaze,-34.4342,-57.4381,293.77,68.0,58.0,6.43,UY,1644453698,Juan Lacaze,69.11600000000001
avila,40.5833,-5,277.4,69.0,0.0,1.36,ES,1644453699,Avila,39.65
padang,-0.9492,100.3543,297.18,60.0,100.0,1.56,ID,1644453699,Padang,75.25400000000005
santa helena de goias,-17.8136,-50.5969,294.92,89.0,100.0,0.91,BR,1644453699,Santa Helena de Goiás,71.18600000000006
kingman,35.1894,-114.053,293.22,8.0,0.0,10.29,US,1644453700,Kingman,68.12600000000009
nizwa,22.9333,57.5333,287.8,70.0,4.0,0.65,OM,1644453563,Nizwá,58.37000000000006
dawlatabad,36.4141,64.9053,279.14,43.0,0.0,1.63,AF,1644453700,Dawlatabad,42.78200000000002
barcelos,41.5388,-8.6151,284.09,77.0,9.0,2.26,PT,1644453652,Barcelos,51.69199999999999
namatanai,-3.6667,152.4333,302.47,69.0,51.0,2.67,PG,1644453701,Namatanai,84.7760000000001
yar-sale,66.8333,70.8333,255.49,97.0,41.0,5.29,RU,1644453701,Yar-Sale,0.2120000000000566
san jose,37.3394,-121.895,296.91,30.0,75.0,5.14,US,1644453133,San Jose,74.76800000000009
atambua,-9.1061,124.8925,299.79,80.0,67.0,1.65,ID,1644453701,Atambua,79.95200000000008
kenda,23.2,86.5333,289.68,77.0,100.0,0.93,IN,1644453702,Kenda,61.754000000000055
ouesso,1.6136,16.0517,295.64,33.0,81.0,1.64,CG,1644453702,Ouésso,72.48200000000001
magdagachi,53.45,125.8,256.0,79.0,86.0,1.31,RU,1644453702,Magdagachi,1.1300000000000416
